,stcode,설립유형,총_대기율,staff_score,capacity_score,safety_score,service_score,affordability_score,final_score,기관명,주소_정제,위도,경도
0,11110000011,국공립,67,0.37925,0.0536666666666666,0.5345,0.25,1.0,0.4434833333333333,삼청어린이집,서울특별시 종로구 삼청로7길 26,37.5840284,126.9804953
1,11110000012,사회복지법인,0,0.27425,0.14,0.6375,0.021,0.396,0.29375,창신어린이집,서울특별시 종로구 창신5길 22,37.57360468,127.0120168
2,11110000013,국공립,53,0.34875,0.1443333333333333,0.5974999999999999,0.011,0.861,0.3925166666666666,아동회관어린이집,서울특별시 종로구 지봉로13길 14 아동회관어린이집,37.5785618,127.0146045
3,11110000014,국공립,111,0.3745,0.1746666666666666,0.6375,0.173,0.687,0.4093333333333334,부암어린이집,서울특별시 종로구 세검정로6다길 10-7,37.6015483,126.9630897
4,11110000015,국공립,13,0.26575,0.077,0.6285000000000001,0.03525,0.409,0.2831,낙산어린이집,서울특별시 종로구 창신길 210-11 낙산어린이집,37.57950599999999,127.010216
5,11110000016,국공립,106,0.34925,0.1023333333333333,0.6375,0.1263333333333333,0.861,0.4152833333333333,한빛어린이집,서울특별시 종로구 종로65길 10,37.5748793,127.0199741
6,11110000017,국공립,52,0.24075,0.144,0.6375,0.11075,0.328,0.2922,세종마을어린이집,서울특별시 종로구 옥인길 89,37.5819498,126.9639491
7,11110000018,국공립,49,0.32925,0.1083333333333333,0.7805,0.5177499999999999,0.831,0.5133666666666666,조은어린이집,서울특별시 종로구 지봉로12가길 35,37.5756521,127.0169757
8,11110000019,국공립,29,0.393,0.0726666666666666,0.4825,0.09325,0.409,0.2900833333333333,누상어린이집,서울특별시 종로구 옥인길 23-4,37.5807841,126.9671836
9,11110000023,국공립,60,0.304,0.1443333333333333,0.843,0.29075,1.0,0.5164166666666666,무악어린이집,서울특별시 종로구 통일로18길 64,37.576049,126.9603043
10,11110000029,국공립,68,0.39675,0.079,0.5974999999999999,0.0645,0.353,0.2981499999999999,가회어린이집,서울특별시 종로구 북촌로12길 12-2 가회어린이집,37.5818386,126.985885
11,11110000030,국공립,77,0.35575,0.1626666666666666,0.6375,0.1525,0.831,0.4278833333333333,상록수어린이집,서울특별시 종로구 송월1길 73-7 상록수어린이집,37.5728671,126.964054
12,11110000033,국공립,86,0.37625,0.1426666666666666,0.669,0.18525,0.692,0.4130333333333332,혜화어린이집,서울특별시 종로구 대학로14길 34,37.5847784,127.0025382
13,11110000034,국공립,77,0.3285,0.125,0.6375,0.31125,0.523,0.38505,인왕어린이집,서울특별시 종로구 통일로18길 9 인왕산 아이파크단지내,37.5768541,126.9567604
14,11110000035,국공립,80,0.2457499999999999,0.1153333333333333,0.606,0.03725,0.251,0.2510666666666666,청운별빛어린이집,서울특별시 종로구 자하문로35길 21,37.5884211,126.966463
15,11110000038,국공립,38,0.238,0.1443333333333333,0.7,0.2124166666666666,0.455,0.34995,사직어린이집,서울특별시 종로구 필운대로1길 16-8,37.5780951,126.9686859
16,11110000039,직장,0,0.34875,0.057,0.5974999999999999,0.01125,0.575,0.3178999999999999,종로구청직장어린이집,서울특별시 종로구 종로1길 36 대림빌딩,37.5734646273137,126.979148446181
17,11110000040,국공립,154,0.274,0.1123333333333333,0.6375,0.0335,0.77,0.3654666666666667,숭인어린이집,서울특별시 종로구 지봉로 86,37.5778304,127.0156304
18,11110000041,법인·단체등,10,0.32525,0.1256666666666666,0.5660000000000001,0.125,0.508,0.3299833333333333,초동어린이집,서울특별시 종로구 돈화문로5가길 23,37.57174148,126.9912585
19,11110000044,국공립,59,0.391,0.1733333333333333,0.8745,0.5225,0.806,0.5534666666666667,명륜어린이집,서울특별시 종로구 성균관로13길 66,37.5913104,126.9951586
20,11110000048,국공립,0,0.39675,0.0786666666666666,0.669,0.0465,0.0,0.2381833333333333,창신제일어린이집,서울특별시 종로구 낙산성곽동길 69 창신동,37.5785421,127.0085919
21,11110000069,민간,-,0.40125,0.0446666666666666,0.606,0.25,0.0,0.2603833333333333,다솔 방과후교실 어린이집,서울특별시 종로구 통일로8길 16,37.5693387,126.9655448
22,11110000079,직장,0,0.5915,0.5016666666666666,0.763,0.1701590909090909,0.831,0.5714651515151515,서울청사푸른빛어린이집,서울특별시 종로구 세종대로 209 서울청사관리소,37.57499554246283,126.9751406354762
23,11110000083,직장,0,0.27525,0.1546666666666666,0.906,0.2261666666666666,0.365,0.3854166666666666,서울대학교병원어린이집,서울특별시 종로구 대학로 101 1층,37.57946548,126.9990227
24,11110000086,민간,30,0.39075,0.0556666666666666,0.6375,0.023,0.508,0.3229833333333333,안동어린이집,서울특별시 종로구 북촌로7길 3-10,37.5798063,126.9843565
25,11110000105,직장,0,0.49525,0.1836666666666666,0.6375,0.1875,0.0,0.3007833333333333,SK행복어린이집,서울특별시 종로구 종로 26 SK서린동빌딩 2층,37.56967307,126.980289
26,11110000111,직장,0,0.40425,0.0903333333333333,0.5745,0.25,0.266,0.3170166666666666,KT혜화 어린이집,서울특별시 종로구 대학로 65,37.57700048,127.0042702
27,11110000142,직장,0,0.5205,0.2466666666666667,0.857,0.3315,0.0,0.3911333333333333,무궁화어린이집,서울특별시 종로구 자하문로28길 8 외 1,37.58479164,126.9710612
28,11110000143,국공립,67,0.37575,0.121,0.606,0.1164999999999999,1.0,0.4438499999999999,대학로어린이집,서울특별시 종로구 이화장길 86-22,37.5793517,127.0054987
29,11110000147,직장,0,0.4145,0.1483333333333333,0.669,0.15725,0.453,0.3684166666666666,kids-sure어린이집,서울특별시 종로구 종로 14,37.57042100286944,126.986276493878
30,11110000148,직장,0,0.3097499999999999,0.073,0.6599999999999999,0.28225,0.0,0.2649999999999999,미래나무어린이집,서울특별시 종로구 종로33길 15,37.57181311108567,127.0010009021732
31,11110000149,직장,0,0.296,0.161,0.7315,0.07675,0.36,0.3250499999999999,교보생명다솜이어린이집,서울특별시 종로구 신문로2가 경희궁1가길 3,37.57206775576062,126.9693730130651
32,11110000150,직장,0,0.285,0.1253333333333333,0.6375,0.125,0.585,0.3515666666666666,KIM&CHANG 어린이집,서울특별시 종로구 신문로2가 경희궁길 26 썬타워빌딩 1층,37.57227407463736,126.970989872268
33,11110000151,가정,45,0.41925,0.0403333333333333,0.503,0.029,0.505,0.2993166666666667,아이소리어린이집,서울특별시 종로구 지봉로5길 7 103-101,37.57407935499962,127.013833310128
34,11110000152,직장,0,0.25825,0.143,0.4825,0.23925,0.0,0.2246,SK ecoplant 행복날개어린이집,서울특별시 종로구 율곡로2길 19 SK ecoplant 행복날개어린이집,37.57443353268173,126.9811461928026
35,11110000153,직장,0,0.347,0.073,0.6285000000000001,0.08425,0.36,0.29855,현대다솜어린이집,서울특별시 종로구 창덕궁길 19 현대다솜어린이집,37.57823397808198,126.9885660083288
36,11110000154,민간,76,0.349,0.0373333333333333,0.503,0.0,1.0,0.3778666666666667,구기어린이집,서울특별시 종로구 진흥로22길 8-1,37.60667350000001,126.9583002
37,11110000155,국공립,149,0.409,0.2466666666666666,0.763,0.2455,0.692,0.4712333333333333,종로숲어린이집,서울특별시 종로구 평창문화로 73-7 종로숲어린이집,37.6062049,126.9680376
38,11110000156,직장,0,0.3695,0.1033333333333333,0.606,0.2945,0.563,0.3872666666666666,GS건설 꿈과 희망의 어린이집,서울특별시 종로구 종로 33 그랑서울 타워2,37.57096024357674,126.9814402481586
39,11110000157,직장,0,0.31925,0.0976666666666666,0.4635,0.2049166666666666,0.491,0.3152666666666667,LG광화문어린이집,서울특별시 종로구 신문로2가 새문안로 58,37.5692752221037,126.9715791809976
40,11110000158,직장,0,0.4165,0.0903333333333333,0.6375,0.15275,0.278,0.3150166666666666,현대해상 온마음어린이집,서울특별시 종로구 신문로2가 경희궁1길 9,37.57113113364561,126.9710079624809
41,11110000159,국공립,80,0.2425,0.0556666666666666,0.606,0.04525,0.5,0.2898833333333333,창경어린이집,서울특별시 종로구 성균관로1길 6-3,37.5834401,126.9977889
42,11110000162,직장,0,0.446,0.0896666666666666,0.5974999999999999,0.13775,0.0,0.2541833333333333,아이누리 어린이집,서울특별시 종로구 사직로8길 20 파크팰리스 제1층 제101호,37.57393132279893,126.9705902961053
43,11110000165,직장,0,0.267,0.0726666666666666,0.6285000000000001,0.279,0.378,0.3250333333333334,SGI서울보증 어린이집,서울특별시 종로구 김상옥로 29 2층,37.57362864338806,127.0010301278881
44,11110000167,직장,0,0.44775,0.1436666666666667,0.7945,0.2311666666666666,0.739,0.4712166666666667,서울경찰청어린이집,서울특별시 종로구 사직로8길 31,37.5748364,126.9719665
45,11110000168,직장,0,0.225,0.097,0.5575,0.25,0.354,0.2966999999999999,한숲어린이집,서울특별시 종로구 통일로 134 디타워 돈의문 2층,37.56686634451361,126.9662012775772
46,11110000169,국공립,72,0.34925,0.0403333333333333,0.503,0.26275,0.178,0.2666666666666666,천사어린이집,서울특별시 종로구 낙산길 198 205-101,37.5803228,127.0117854
47,11110000170,직장,0,0.33875,0.1076666666666666,0.6375,0.0910833333333333,0.482,0.3314,SC으뜸별 어린이집,서울특별시 종로구 종로 47,37.5711261798,126.9824408691
48,11110000171,국공립,66,0.4875,0.1056666666666666,0.7,0.30525,1.0,0.5196833333333333,도담도담어린이집,서울특별시 종로구 숭인동길 47,37.5770463,127.0218663
49,11110000172,국공립,133,0.3339999999999999,0.1083333333333333,0.5345,0.2925,0.347,0.3232666666666666,경희궁자이어린이집,서울특별시 종로구 경교장길 35 306동 데크층,37.5686016,126.966059
50,11110000174,국공립,138,0.3334999999999999,0.0686666666666666,0.5660000000000001,0.347,0.381,0.3392333333333333,경희궁솔빛어린이집,서울특별시 종로구 송월길 99 210동 1층,37.5708297,126.9635609
51,11110000175,국공립,66,0.30575,0.1086666666666666,0.4425,0.14675,1.0,0.4007333333333333,동화속아이들어린이집,서울특별시 종로구 통일로 246-11 무악현대아파트 단지내,37.5752001,126.9604154
52,11110000176,직장,0,0.4885,0.1033333333333333,0.589,0.2261666666666666,0.278,0.3369999999999999,삼양어린이집,서울특별시 종로구 종로33길 31,37.5726123205,127.0010957695
53,11110000177,국공립,51,0.273,0.2326666666666666,0.7315,0.1773571428571428,1.0,0.4829047619047619,선재어린이집,서울특별시 종로구 우정국로 51-4,37.573451,126.9822467
54,11110000178,직장,0,0.2255,0.143,0.5345,0.30325,0.35,0.3112499999999999,라이나생명 키즈나루 어린이집,서울특별시 종로구 삼봉로 48 라이나타워 2층,37.57209526383034,126.9800091369
55,11110000179,직장,0,0.27425,0.0796666666666666,0.5660000000000001,0.3075,0.861,0.4176833333333333,서울지방국세청 우리누리어린이집,서울특별시 종로구 종로5길 86,37.57413147177976,126.9797708691958
56,11110000180,직장,0,0.23925,0.0806666666666666,0.5575,0.1410833333333333,0.362,0.2761,로카키즈어린이집,서울특별시 종로구 새문안로2길 10 1층,37.56870363599733,126.9719789709139
57,11110000181,직장,0,0.3335,0.144,0.5974999999999999,0.251,1.0,0.4652,청정원 종로 어린이집,서울특별시 종로구 창경궁로 120 종로플레이스 2층,37.57296189775182,126.9981888022783
58,11110000183,직장,0,0.2002499999999999,0.1076666666666666,0.5974999999999999,0.26825,0.447,0.3241333333333333,감사원어린이집,서울특별시 종로구 북촌로 127,37.587039,126.9833954
59,11110000184,국공립,49,0.18775,0.1336666666666666,0.5974999999999999,0.21875,0.523,0.3321333333333333,연동어린이집,서울특별시 종로구 대학로3길 9 연지동,37.575045,126.9995419
60,11110000186,직장,0,0.25825,0.1413333333333333,0.5974999999999999,0.291,0.337,0.3250166666666666,강북삼성병원 효석어린이집,서울특별시 종로구 경교장길 8 1층,37.56647,126.977963
61,11140000005,국공립,47,0.4135,0.2243333333333333,0.7,0.18925,0.0,0.3054166666666666,다산어린이집,서울특별시 중구 동호로15길 50,37.5542597,127.0082859
62,11140000006,국공립,15,0.3025,0.1243333333333333,0.6599999999999999,0.29475,0.855,0.4473166666666667,단우물 어린이집,서울특별시 중구 다산로48길 33 단우물어린이집,37.5673965,127.0181323
63,11140000007,국공립,33,0.2595,0.142,0.5660000000000001,0.08725,0.942,0.39935,중구청직장어린이집,서울특별시 중구 마른내로12길 17-19,37.5638189,127.0012
64,11140000008,국공립,29,0.4207499999999999,0.107,0.669,0.1954166666666666,0.722,0.4228333333333333,충무어린이집,서울특별시 중구 동호로27길 21,37.5602691,127.0017535
65,11140000009,법인·단체등,29,0.505,0.1076666666666666,0.503,0.2044166666666666,0.0,0.2640166666666667,신당중앙어린이집,서울특별시 중구 다산로 165,37.55831345,127.0121588
66,11140000010,법인·단체등,45,0.423,0.0636666666666666,0.4635,0.02675,0.942,0.3837833333333333,약수교회어린이집,서울특별시 중구 다산로8길 32,37.55235768,127.011203
67,11140000011,국공립,135,0.34025,0.1183333333333333,0.669,0.287,0.206,0.3241166666666666,중림어린이집,서울특별시 중구 만리재로35길 12,37.555677,126.9677178
68,11140000012,국공립,21,0.2895,0.142,0.5974999999999999,0.295,0.0,0.2648,필동어린이집,서울특별시 중구 퇴계로36가길 60,37.5576993,126.9954938
69,11140000013,국공립,10,0.462,0.16,0.7,0.2965,0.722,0.4681,회현어린이집,서울특별시 중구 퇴계로12가길 23,37.5560108,126.9809197
70,11140000014,법인·단체등,80,0.39175,0.1013333333333333,0.6375,0.28325,0.0,0.2827666666666666,가명어린이집,서울특별시 중구 청파로 447-1,37.5589741,126.9670146
71,11140000015,국공립,36,0.38125,0.1583333333333333,0.6285000000000001,0.213,0.0,0.2762166666666666,신당동어린이집,서울특별시 중구 청구로8길 41,37.5621914,127.0141941
72,11140000016,국공립,31,0.33025,0.1743333333333333,0.763,0.1605,0.0,0.2856166666666667,청구어린이집,서울특별시 중구 다산로24길 81,37.5571941,127.0167491
73,11140000017,국공립,46,0.4247499999999999,0.148,0.7315,0.25,0.0,0.31085,황학어린이집,서울특별시 중구 난계로15길 23,37.5687536,127.0223291
74,11140000018,법인·단체등,42,0.19575,0.108,0.6599999999999999,0.30525,0.0,0.2537999999999999,영락교회어린이집,서울특별시 중구 수표로 33,37.5632088,126.9891675
75,11140000019,국공립,44,0.3675,0.177,0.7,0.2275,0.681,0.4306,약수어린이집,서울특별시 중구 다산로6길 15,37.5523312,127.009243
76,11140000020,국공립,230,0.4215,0.182,0.505,0.35875,0.0,0.29345,만리어린이집,서울특별시 중구 만리동2가 만리재로 175,37.5542175,126.9634093
77,11140000021,국공립,35,0.2965,0.2656666666666666,0.669,0.175,0.0,0.2812333333333333,신당5동어린이집,서울특별시 중구 퇴계로88가길 8-10,37.56302520000001,127.0208438
78,11140000023,국공립,165,0.398,0.1836666666666666,0.843,0.32775,0.942,0.5388833333333333,남산숲어린이집,서울특별시 중구 동호로5길 193 남산숲어린이집,37.5465129,127.0089191
79,11140000025,국공립,66,0.45375,0.2406666666666667,0.6915,0.2604166666666666,0.583,0.4458666666666666,동화나라어린이집,서울특별시 중구 다산로38길 80,37.5615451,127.0192711
80,11140000028,국공립,170,0.2205,0.0403333333333333,0.503,0.01925,0.0,0.1566166666666666,다솜어린이집,서울특별시 중구 동호로10길 30 103동 101호,37.554768,127.0147101
81,11140000034,직장,0,0.27675,0.2729999999999999,0.7,0.308,0.497,0.41095,서소문삼성어린이집,"서울특별시 중구 을지로1가 을지로 19 2,3,5층 서소문삼성어린이집",37.566295092422,126.9799342839232
82,11140000035,민간,39,0.28325,0.0583333333333333,0.7315,0.03475,0.0,0.2215666666666667,신당삼성어린이집,서울특별시 중구 동호로15길 21-36,37.5557379,127.0092759
83,11140000036,민간,43,0.30225,0.1453333333333333,0.7175,0.61625,0.942,0.5446666666666667,한솔어린이집,서울특별시 중구 다산로 32 남산타운 단지내 한솔어린이집,37.55135629999999,127.0112108
84,11140000043,국공립,178,0.4325,0.0513333333333333,0.5345,0.0,0.544,0.3124666666666666,아기사랑어린이집,서울특별시 중구 다산로32길 25,37.560876,127.0158466
85,11140000048,직장,1,0.5345,0.3153333333333333,0.8255,0.33225,0.721,0.5457166666666666,서울시청직장어린이집,서울특별시 중구 서소문로11길 24 5-1번지 서울시청직장어린이집,37.56450641,126.9760072
86,11140000053,법인·단체등,10,0.3485,0.1076666666666666,0.5745,0.013,0.0,0.2087333333333333,경동어린이집,서울특별시 중구 장충단로 204,37.56319426,127.0073109
87,11140000056,법인·단체등,139,0.28875,0.1533333333333333,0.411,0.0,0.942,0.3590166666666666,신일교회어린이집,서울특별시 중구 다산로 128-9,37.55500747,127.0115053
88,11140000057,직장,0,0.5145,0.2736666666666666,0.669,0.29175,0.0,0.3497833333333333,SKT행복날개어린이집,서울특별시 중구 을지로2가 을지로 65 SK-T타워 3층,37.56647,126.9851118
89,11140000060,가정,50,0.1689999999999999,0.0403333333333333,0.503,0.25,0.942,0.3808666666666666,엔젤어린이집,서울특별시 중구 중림로 10 106동 103호,37.5581639,126.9652466
90,11140000065,국공립,255,0.24525,0.0596666666666666,0.392,0.1815,0.942,0.3640833333333333,롯데캐슬어린이집,서울특별시 중구 청계천로 400 롯데캐슬베네치아아파트 103동7층관리동,37.5712191,127.0213001
91,11140000066,직장,0,0.381,0.0633333333333333,0.5974999999999999,0.0,0.011,0.2105666666666666,우리누리 어린이집,서울특별시 중구 삼일대로 340 나라키움빌딩 2층,37.5652146,126.9879156
92,11140000079,국공립,165,0.4215,0.057,0.6375,0.29025,0.881,0.45745,남산타운어린이집,서울특별시 중구 다산로 32,37.5613668,127.0158817
93,11140000080,직장,0,0.445,0.3086666666666667,0.7,0.21325,0.219,0.3771833333333333,한국은행 어린이집,서울특별시 중구 남대문로 39 한국은행 통합별관 5층,37.5624122463116,126.9811713096742
94,11140000084,가정,25,0.40425,0.0493333333333333,0.503,0.125,0.0,0.2163166666666666,햇살어린이집,서울특별시 중구 동호로14길 11-8 B동 102호,37.55653529,127.010497
95,11140000085,직장,0,0.403,0.172,0.5660000000000001,0.308,0.263,0.3424,CJ키즈빌 어린이집,서울특별시 중구 동호로 330,37.56396399,127.0032756
96,11140000086,민간,114,0.3915,0.1376666666666667,0.669,0.2074166666666666,0.0,0.2811166666666667,리틀포도나무어린이집,서울특별시 중구 퇴계로90길 74 래미안하이베르아파트 관리동1층,37.5614229,127.0224603
97,11140000087,직장,0,0.2675,0.2656666666666666,0.5660000000000001,0.16325,0.806,0.4136833333333333,농협중앙회어린이집,서울특별시 중구 새문안로 16,37.5664636169861,126.967736925035
98,11140000091,국공립,111,0.46225,0.0626666666666666,0.5660000000000001,0.043,0.184,0.2635833333333333,동화어린이집,서울특별시 중구 청구로 64 청구e편한세상아파트 106동 1층,37.560287,127.0165775
99,11140000093,가정,155,0.3075,0.0576666666666666,0.5745,0.027,0.942,0.3817333333333333,해피맘어린이집,서울특별시 중구 청계천로 400 롯데캐슬베네치아 105동 704호,37.57081313329105,127.0214621617796
100,11140000094,가정,72,0.3075,0.0753333333333333,0.503,0.1666666666666666,0.0,0.2105,무지개어린이집,서울특별시 중구 청구로1길 23 113동 103호,37.55856376108576,127.0184302760946
101,11140000097,가정,216,0.2665,0.0403333333333333,0.503,0.0,0.0,0.1619666666666666,키즈숲 어린이집,서울특별시 중구 다산로 32 15동 101호,37.54712592365811,127.005581784279
102,11140000098,직장,0,0.26875,0.1383333333333333,0.669,0.22975,0.28,0.3171666666666667,예금보험공사어린이집,서울특별시 중구 청계천로 30 2층,37.56853889646241,126.9807485681296
103,11140000099,직장,0,0.293,0.0393333333333333,0.5974999999999999,0.05925,0.017,0.2012166666666666,SK브로드밴드 행복한 어린이집,서울특별시 중구 퇴계로 24 남산소월타워 4층,37.55661899726137,126.9759616023854
104,11140000100,직장,2,0.359,0.1083333333333333,0.514,0.17325,0.467,0.3243166666666667,을지로 하나금융그룹 직장어린이집,서울특별시 중구 을지로2가 을지로 55 하나은행 2층,37.56640879202888,126.9840266356666
105,11140000101,직장,0,0.32,0.1553333333333333,0.495,0.0,0.219,0.2378666666666666,한화태평로어린이집,서울특별시 중구 태평로2가 세종대로 92 4층,37.56423453944913,126.9775709334532
106,11140000104,직장,0,0.348,0.0553333333333333,0.495,0.0,0.393,0.2582666666666666,GKL행복어린이집,서울특별시 중구 남대문로5가 한강대로 416 서울스퀘어 5층,37.5555048939659,126.9737528146489
107,11140000105,직장,0,0.4225,0.1083333333333333,0.4635,0.26025,0.59,0.3689166666666666,롯데mom편한어린이집,"서울특별시 중구 회현동1가 소공로 35 남산롯데캐슬아이리스 210호, 211호",37.55822380859089,126.9817467235163
108,11140000106,직장,0,0.40975,0.1139999999999999,0.606,0.21325,0.396,0.3478,우리은행어린이집,서울특별시 중구 회현동1가 소공로 51,37.55943835335702,126.9817509544113
109,11140000107,국공립,31,0.293,0.0726666666666666,0.5345,0.27775,0.0,0.2355833333333333,미담어린이집,서울특별시 중구 퇴계로 447 A동 204호,37.5661712,127.0219095
110,11140000108,직장,0,0.29775,0.1196666666666666,0.669,0.0135,0.476,0.3151833333333333,IBK 참! 좋은 어린이집,서울특별시 중구 을지로2가 을지로 82,37.5657063891,126.9870828853
111,11140000109,직장,0,0.24025,0.09,0.495,0.00925,0.316,0.2301,LG서울역어린이집,서울특별시 중구 남대문로5가 후암로 98 2층,37.55395945981493,126.9747967942587
112,11140000110,국공립,168,0.3309999999999999,0.0603333333333333,0.5660000000000001,0.296,0.0,0.2506666666666667,늘푸른어린이집,서울특별시 중구 만리동2가 만리재로21길 9,37.5527775,126.9630658
113,11140000111,직장,0,0.3505,0.1756666666666666,0.411,0.259,0.514,0.3420333333333333,신한꿈나무어린이집,서울특별시 중구 을지로2가 삼일대로 358 신한L타워 3층,37.5664885611,126.9881059884
114,11140000112,직장,0,0.31525,0.2313333333333333,0.514,0.1774166666666666,0.568,0.3612,명동하나금융그룹직장어린이집,서울특별시 중구 을지로2가 을지로 66 하나금융그룹 명동사옥 2층,37.56555479225988,126.9851326711009
115,11140000113,직장,0,0.27725,0.0856666666666666,0.7315,0.2804999999999999,0.541,0.3831833333333333,교원&하나투어 공동직장어린이집,서울특별시 중구 을지로2가 을지로 55 교원명동빌딩 3층,37.5658904,126.9850802
116,11140000114,직장,0,0.3585,0.0966666666666666,0.5974999999999999,0.25,0.246,0.3097333333333333,푸르지오비씨 어린이집,서울특별시 중구 을지로4가 을지로 170,37.56632830333276,126.9973768259543
117,11140000115,국공립,70,0.399,0.055,0.514,0.28,0.0,0.2496,신당하나어린이집,서울특별시 중구 왕십리로 407 신당파인힐하나유보라 103동 1층,37.5642528,127.0249164
118,11140000116,가정,108,0.2315,0.0516666666666666,0.5745,0.0,0.0,0.1715333333333333,아이다움어린이집,서울특별시 중구 난계로 130 102동 102호,37.56350229819328,127.0244777882644
119,11140000118,직장,0,0.2575,0.15,0.495,0.327,0.477,0.3413,농협중앙회 별관 어린이집,서울특별시 중구 새문안로 16 농협중앙회 별관 2층,37.56631941482,126.9677210977601
120,11140000123,직장,0,0.358,0.073,0.589,0.31025,0.941,0.4542499999999999,현대캐피탈 도담어린이집,서울특별시 중구 세종대로 14 그랜드센트럴 2층 현대캐피탈 도담어린이집,37.55771431591427,126.974557858396
121,11140000125,국공립,43,0.19275,0.1253333333333333,0.6285000000000001,0.1325,0.0,0.2158166666666666,세운어린이집,서울특별시 중구 을지로15길 32 힐스테이트 세운센트럴 2단지,37.5680645,126.9943906
122,11140000126,직장,0,0.29325,0.0336666666666666,0.669,0.0245,0.0,0.2040833333333333,이마트 어린이집,서울특별시 중구 세종대로7길 37 1층,37.56647,126.977963
123,11140000127,국공립,170,0.23925,0.0403333333333333,0.503,0.04125,0.0,0.1647666666666666,새봄어린이집,서울특별시 중구 청계천로 400 101동 709호,37.5709778,127.021434
124,11140000129,직장,0,0.2624999999999999,0.0556666666666666,0.495,0.011,0.383,0.2414333333333333,메리츠 어린이집,서울특별시 중구 서소문로 95 정안빌딩 1층,37.56279979789758,126.9717208579592
125,11170000005,국공립,77,0.333,0.131,0.7,0.2925,0.47,0.3853,서계어린이집,서울특별시 용산구 청파로93길 25 서계어린이집,37.554147,126.967776
126,11170000007,국공립,8,0.28375,0.0793333333333333,0.669,0.04175,0.711,0.3569666666666666,소월어린이집,서울특별시 용산구 신흥로18길 3-5,37.5461162,126.9858368
127,11170000008,법인·단체등,27,0.31775,0.069,0.503,0.03075,0.147,0.2135,용산교회어린이집,서울특별시 용산구 원효로1가 백범로77길 36,37.53982444,126.9655838
128,11170000009,국공립,48,0.2845,0.1323333333333333,0.4195,0.292,0.513,0.3282666666666666,후암어린이집,서울특별시 용산구 두텁바위로1길 86,37.54768139999999,126.9758514
129,11170000010,국공립,56,0.129,0.0763333333333333,0.5745,0.26325,0.206,0.2498166666666666,새싹어린이집,서울특별시 용산구 원효로67길 13,37.53757110000001,126.9638878
130,11170000011,국공립,16,0.27475,0.165,0.6375,0.30125,0.551,0.3859,청파어린이집,서울특별시 용산구 청파로49길 19,37.5452873,126.9690172
131,11170000012,사회복지법인,5,0.2624999999999999,0.042,0.7315,0.0,0.529,0.313,절제어린이집,서울특별시 용산구 후암로57길 57,37.55092073,126.9741571
132,11170000014,국공립,60,0.2485,0.154,0.6375,0.1876666666666666,0.702,0.3859333333333333,원효어린이집,서울특별시 용산구 원효로41가길 14-19,37.5348245,126.9567616
133,11170000019,국공립,25,0.32575,0.0956666666666666,0.4195,0.27875,0.312,0.2863333333333333,이태원어린이집,서울특별시 용산구 녹사평대로40나길 38-3,37.5363167,126.988913
134,11170000020,국공립,86,0.32375,0.153,0.6375,0.32425,0.372,0.3621,이촌어린이집,서울특별시 용산구 이촌로14길 11-22,37.5269293,126.9544651
135,11170000021,국공립,435,0.31875,0.1626666666666666,0.7805,0.621,0.454,0.4673833333333334,용산어린이집,서울특별시 용산구 한강로2가 한강대로38길 28 용산어린이집,37.5290421,126.9703037
136,11170000022,국공립,57,0.3125,0.1313333333333333,0.669,0.027,0.308,0.2895666666666666,도원어린이집,서울특별시 용산구 효창원로37마길 8 도원어린이집,37.5382046,126.9585556
137,11170000023,국공립,11,0.4155,0.1316666666666666,0.7,0.16825,0.655,0.4140833333333333,해방어린이집,서울특별시 용산구 소월로20길 43 해방어린이집,37.5443804,126.9852002
138,11170000026,국공립,18,0.29875,0.0946666666666666,0.606,0.125,0.279,0.2806833333333333,솔어린이집,서울특별시 용산구 장문로 95,37.5262639,127.0001065
139,11170000027,국공립,54,0.42175,0.167,0.843,0.411,0.684,0.5053500000000001,동빙고어린이집,서울특별시 용산구 녹사평대로14길 7,37.523575,126.9940178
140,11170000036,국공립,35,0.37575,0.1433333333333333,0.606,0.30675,0.642,0.4147666666666667,백송어린이집,서울특별시 용산구 효창원로76길 25-6,37.5435065,126.9633178
141,11170000038,국공립,93,0.42775,0.132,0.606,0.2755,0.719,0.43205,한남어린이집,서울특별시 용산구 대사관로5길 1,37.5345698,127.0004869
142,11170000049,가정,20,0.3465,0.163,0.392,0.03125,0.36,0.2585499999999999,청화어린이집,서울특별시 용산구 보광로 14 A동 108호,37.52574417,127.0017389
143,11170000051,민간,301,0.247,0.0913333333333333,0.7315,0.11625,1.0,0.4372166666666667,이태원삼성어린이집,서울특별시 용산구 이태원로27길 34-30,37.5352923,126.9954067
144,11170000054,가정,321,0.34775,0.023,0.348,0.0,0.333,0.2103499999999999,꿈동이어린이집,서울특별시 용산구 이촌로87길 21 101동 101호,37.52000465,126.9786745
145,11170000059,민간,77,0.363,0.1486666666666666,0.749,0.60025,0.659,0.5039833333333334,상록어린이집,서울특별시 용산구 백범로45길 4,37.5409681,126.9583172
146,11170000060,민간,407,0.275,0.0676666666666666,0.5745,0.1535,1.0,0.4141333333333333,꿈밭어린이집,서울특별시 용산구 이촌로81길 34 꿈밭어린이집,37.5200745,126.9779378
147,11170000063,민간,36,0.32375,0.113,0.812,0.5,0.619,0.47355,효창어린이집,서울특별시 용산구 효창원로69길 14-3,37.5421853,126.961383
148,11170000069,민간,13,0.19975,0.0536666666666666,0.615,0.5,0.535,0.3806833333333334,반석어린이집,서울특별시 용산구 효창원로 178,37.54357340000001,126.9626759
149,11170000071,가정,20,0.2665,0.0576666666666666,0.3605,0.1635,0.314,0.2324333333333333,해솔어린이집,서울특별시 용산구 장문로19길 31,37.52636225932999,126.9985971953728
150,11170000073,민간,60,0.3175,0.0523333333333333,0.5435,0.28675,0.225,0.2850166666666667,새날어린이집,서울특별시 용산구 새창로8길 7 삼성래미안아파트 2단지내 관리동1층,37.5394083,126.9561229
151,11170000077,국공립,42,0.3022499999999999,0.1216666666666666,0.7090000000000001,0.39925,0.444,0.3952333333333332,새꿈어린이집,서울특별시 용산구 후암로57길 26,37.5523908,126.973613
152,11170000079,민간,48,0.45625,0.0613333333333333,0.5745,0.082,0.253,0.2854166666666667,신태양 어린이집,서울특별시 용산구 만리재로 178,37.5539718,126.9660982
153,11170000080,민간,51,0.247,0.1683333333333333,0.5745,0.0675,0.512,0.3138666666666666,새랑꿈이랑 어린이집,서울특별시 용산구 새창로 70 삼성래미안아파트 단지내,37.5394083,126.9561229
154,11170000083,법인·단체등,-,0.25325,0.0226666666666666,0.3295,0.0,0.0,0.1210833333333333,선인방과후교실어린이집,서울특별시 용산구 효창원로8길 17 선인중앙교회,37.53389122,126.9521087
155,11170000085,법인·단체등,-,0.5065,0.0446666666666666,0.472,0.0,0.0,0.2046333333333333,참나무방과후 어린이집,서울특별시 용산구 새창로12길 11-18 용산제일교회내 참나무방과후교실,37.53871489,126.9581627
156,11170000091,가정,0,0.2565,0.0736666666666666,0.503,0.0,1.0,0.3666333333333333,완두콩어린이집,서울특별시 용산구 청파로71길 58 아이딜아파트 101호,37.54942454,126.9669722
157,11170000094,직장,0,0.20325,0.0436666666666666,0.606,0.10375,1.0,0.3913333333333333,엘지유플러스어린이집,서울특별시 용산구 한강로3가 한강대로 32,37.52384284000428,126.9635283068631
158,11170000109,민간,17,0.422,0.0993333333333333,0.6375,0.0185,0.359,0.3072666666666667,영주어린이집,서울특별시 용산구 두텁바위로 91,37.54746,126.9816944
159,11170000112,가정,406,0.36975,0.0226666666666666,0.5660000000000001,0.051,0.782,0.3582833333333333,누리터어린이집,서울특별시 용산구 백범로90길 74 102동 102호,37.5367195,126.9685765
160,11170000118,가정,0,0.329,0.0549999999999999,0.503,0.125,0.011,0.2045999999999999,하연어린이집,서울특별시 용산구 효창원로86라길 31-10 현대휴먼101호,37.548094,126.9666963
161,11170000119,직장,2,0.4669999999999999,0.0506666666666666,0.6915,0.036,0.523,0.3536333333333333,아이제일어린이집,서울특별시 용산구 이태원로49길 24-7 아이제일어린이집,37.53746496,126.9992936
162,11170000122,가정,95,0.217,0.0576666666666666,0.432,0.144,0.318,0.2337333333333333,푸른숲속어린이집,서울특별시 용산구 효창원로 17 104동 103호,37.53487888,126.9508027
163,11170000124,가정,138,0.394,0.0573333333333333,0.503,0.16125,0.194,0.2619166666666667,늘해랑어린이집,서울특별시 용산구 이촌로29길 21-7 101동 101호,37.52546826,126.9597476
164,11170000126,가정,153,0.4197499999999999,0.039,0.432,0.0325,0.131,0.2108499999999999,예꿈어린이집,서울특별시 용산구 이촌로 347 1동 102호,37.5190384636,126.9896383594
165,11170000127,국공립,330,0.2957499999999999,0.1003333333333333,0.669,0.1997499999999999,0.692,0.3913666666666666,한강로어린이집,서울특별시 용산구 서빙고로 35 111호~113호,37.525111,126.9691452
166,11170000128,직장,0,0.599,0.5253333333333333,0.7315,0.2978333333333333,0.002,0.4311333333333332,국방부청사어린이집,서울특별시 용산구 이태원로 22 국방부,37.53358278,126.9776714
167,11170000140,직장,3,0.259,0.17,0.669,0.24575,0.889,0.44655,용산구청직장어린이집,서울특별시 용산구 녹사평대로 150 종합행정타운 1층,37.53244208,126.9903466
168,11170000141,가정,175,0.398,0.0403333333333333,0.503,0.29625,0.24,0.2955166666666666,맘앤키즈어린이집,서울특별시 용산구 효창원로 17 107동 105호,37.53487888,126.9508027
169,11170000142,가정,70,0.2315,0.0226666666666666,0.3605,0.0,1.0,0.3229333333333333,자연어린이집,서울특별시 용산구 이촌로87길 13 104동 104호,37.51871995093854,126.9792994304841
170,11170000145,가정,183,0.31975,0.04,0.503,0.0,0.324,0.23735,도원삼성어린이집,서울특별시 용산구 새창로 70 112동 104호,37.5383072,126.9552593
171,11170000153,가정,75,0.20475,0.0576666666666666,0.7175,0.16725,1.0,0.4294333333333333,서머힐어린이집,"서울특별시 용산구 장문로 27 상가동, 102호",37.52910835195778,126.9936735717406
172,11170000155,국공립,32,0.257,0.0913333333333333,0.669,0.01325,1.0,0.4061166666666667,서빙고어린이집,서울특별시 용산구 녹사평대로 66 대우푸르지오파크타운 208동앞,37.5243109,126.99347
173,11170000158,민간,110,0.284,0.0536666666666666,0.5345,0.27675,0.352,0.3001833333333333,행복한어린이집,서울특별시 용산구 원효로 216 신계동49 이편한테마트 1층 101호,37.5351716,126.96514
174,11170000159,가정,15,0.283,0.0576666666666666,0.432,0.273,1.0,0.4091333333333333,꼬마성어린이집,서울특별시 용산구 장문로6길 76 1단지 1-3,37.52160605106492,126.9946438313359
175,11170000162,가정,250,0.18975,0.04,0.432,0.0575,1.0,0.34385,즐거운어린이집,서울특별시 용산구 이촌로 201 202동 101호,37.52134980870069,126.9701554373006
176,11170000163,가정,188,0.3565,0.039,0.3605,0.29925,1.0,0.41105,생각이자라는어린이집,서울특별시 용산구 이촌로 100-8 103동 102호,37.52425105445809,126.9582677393514
177,11170000164,가정,25,0.34675,0.0386666666666666,0.5345,0.25,0.155,0.2649833333333333,노벨어린이집,서울특별시 용산구 후암로22길 10 104호,37.5513978116851,126.977294962797
178,11170000167,직장,0,0.33425,0.0966666666666666,0.7315,0.0,0.202,0.2728833333333333,IBK 참!좋은 어린이집,서울특별시 용산구 한남대로 72 4층,37.5350669793229,127.007056496912
179,11170000171,가정,255,0.31975,0.0223333333333333,0.432,0.0975,0.781,0.3305166666666667,초록어린이집,서울특별시 용산구 이촌로 181 108동 103호,37.52243120840031,126.9709377927534
180,11170000175,가정,206,0.1697499999999999,0.0213333333333333,0.432,0.03625,0.31,0.1938666666666667,고운꿈어린이집,서울특별시 용산구 이촌로 181 106동 102호,37.5221536300623,126.9706618880275
181,11170000180,국공립,32,0.247,0.0933333333333333,0.669,0.02575,0.361,0.2792166666666666,미래어린이집,서울특별시 용산구 후암로16나길 13,37.5490203,126.9783241
182,11170000181,직장,0,0.293,0.073,0.5660000000000001,0.25,0.544,0.3452,DB손해보험 아이사랑 어린이집,서울특별시 용산구 후암로 107 게이트웨이타워 3층,37.55346138877104,126.9735634051436
183,11170000182,직장,0,0.3365,0.1266666666666666,0.6375,0.34425,0.501,0.3891833333333333,숙명직장어린이집,서울특별시 용산구 청파로47길 100 사회교육관 1층,37.54547273221996,126.9650748296045
184,11170000184,민간,187,0.2865,0.044,0.472,0.0295,0.619,0.2902,더프라임어린이집,서울특별시 용산구 원효로90길 11,37.5402095,126.9700966
185,11170000185,국공립,54,0.40075,0.0643333333333333,0.606,0.02325,0.109,0.2406666666666666,지구촌어린이집,서울특별시 용산구 회나무로28길 13,37.5393569,126.9921756
186,11170000187,직장,0,0.401,0.0403333333333333,0.5660000000000001,0.0,0.063,0.2140666666666666,순천향대학교서울병원어린이집,서울특별시 용산구 독서당로20길 9-5 1층,37.5316743,127.0048128
187,11170000188,국공립,157,0.35575,0.1053333333333333,0.606,0.34425,1.0,0.4822666666666667,샘물어린이집,서울특별시 용산구 원효로4가 원효로19길 49,37.5343336,126.9540334
188,11170000190,국공립,253,0.346,0.0403333333333333,0.503,0.25,0.383,0.3044666666666666,푸른꿈어린이집,"서울특별시 용산구 백범로 260 효창파크푸르지오아파트 104동, 1층",37.5400426,126.9582613
189,11170000191,가정,124,0.2729999999999999,0.0403333333333333,0.5660000000000001,0.024,0.32,0.2446666666666666,새둥지어린이집,서울특별시 용산구 이촌로65가길 3 110동 101호,37.5223116372,126.9719635243
190,11170000192,국공립,100,0.37675,0.08,0.669,0.2955,0.554,0.39505,새순어린이집,"서울특별시 용산구 원효로35길 37-7 1,2층",37.5348853,126.9552136
191,11170000193,국공립,120,0.31675,0.04,0.4635,0.302,0.12,0.2484499999999999,늘봄어린이집,서울특별시 용산구 이촌로2가길 122 105동 106호,37.5252179,126.9549286
192,11170000195,국공립,719,0.3117499999999999,0.122,0.6375,0.0405,0.241,0.2705499999999999,꿈나무어린이집,서울특별시 용산구 원효로1가 백범로 329 꿈나무어린이집,37.5385513,126.9654268
193,11170000196,국공립,45,0.4325,0.04,0.503,0.28625,0.22,0.29635,용문어린이집,서울특별시 용산구 효창원로 88 브라운스톤용산 104-103,37.5363498,126.9591863
194,11170000197,직장,0,0.43225,0.1066666666666666,0.6285000000000001,0.078,0.399,0.3288833333333333,아모레퍼시픽 서울어린이집,서울특별시 용산구 한강대로 100 아모레퍼시픽 2층,37.5287908187,126.9686757151
195,11170000198,국공립,316,0.4242499999999999,0.1583333333333333,0.843,0.8492500000000001,0.621,0.5791666666666667,맑은숲어린이집,서울특별시 용산구 한남대로40길 76 맑은숲어린이집,37.5452095,127.0031249
196,11170000199,가정,0,0.428,0.0579999999999999,0.4635,0.295,0.426,0.3340999999999999,사랑나무어린이집,서울특별시 용산구 후암로 4-8 후암동,37.54635357009264,126.9788165212135
197,11170000200,국공립,376,0.3465,0.0413333333333333,0.5660000000000001,0.03025,1.0,0.3968166666666667,사랑꿈어린이집,서울특별시 용산구 원효로 216 관리동 1층,37.5358957,126.9669677
198,11170000201,직장,0,0.36425,0.0723333333333333,0.5265,0.30525,0.359,0.3254666666666667,삼일어린이집,서울특별시 용산구 한강대로 95 B동 4층 410호,37.52954731337001,126.9673947195214
199,11170000203,국공립,1095,0.283,0.042,0.5745,0.27425,0.346,0.30395,동부이촌어린이집,서울특별시 용산구 이촌로 193 관리동 1층,37.5216748,126.9683635
200,11170000204,국공립,148,0.25575,0.0523333333333333,0.5345,0.02925,0.271,0.2285666666666666,해늘어린이집,"서울특별시 용산구 이촌로34길 29 이촌동, 현대한강아파트 관리동",37.5229454,126.9587488
201,11170000205,국공립,244,0.18925,0.0623333333333333,0.3794999999999999,0.1385,0.275,0.2089166666666666,용산캐슬어린이집,서울특별시 용산구 백범로 313 키즈클럽,37.5395736,126.963503
202,11170000206,직장,0,0.23925,0.073,0.7315,0.3715,0.401,0.3632499999999999,용산소방서직장어린이집,서울특별시 용산구 한강대로 167 용산소방서,37.53408944063891,126.971578961863
203,11170000207,직장,0,0.4075,0.0443333333333333,0.5660000000000001,0.05625,0.36,0.2868166666666666,국립중앙박물관 해누림 어린이집,서울특별시 용산구 서빙고로 137 국립중앙박물관,37.5234949563665,126.9776012351448
204,11170000208,국공립,64,0.2885,0.0406666666666666,0.669,0.25,1.0,0.4496333333333333,목멱어린이집,서울특별시 용산구 회나무로12나길 10,37.5382039,126.9906735
205,11170000209,국공립,502,0.298,0.114,0.669,0.353,0.464,0.3796,큰나래어린이집,"서울특별시 용산구 서빙고로 17 102동 1,2,3층",37.5258963,126.9676579
206,11170000210,국공립,263,0.2309999999999999,0.1073333333333333,0.3794999999999999,0.1598333333333333,0.26,0.2275333333333333,삼각지어린이집,"서울특별시 용산구 백범로99길 40 1,2층",37.5354848,126.9715363
207,11170000213,국공립,200,0.2525,0.0536666666666666,0.5660000000000001,0.30775,0.246,0.2851833333333333,원효루미니어린이집,서울특별시 용산구 원효로97길 15 1층,37.5413303,126.9693305
208,11170000215,국공립,126,0.255,0.0456666666666666,0.495,0.03325,0.667,0.2991833333333333,데시앙아띠어린이집,서울특별시 용산구 효창원로 227 106동 1층,37.5475034,126.9629106
209,11200000007,민간,36,0.4915,0.2436666666666666,0.749,0.4305,0.987,0.5803333333333334,꿈터 어린이집,서울특별시 성동구 용답중앙길 89-2,37.5624307,127.0551225
210,11200000009,국공립,180,0.4265,0.1623333333333333,0.669,0.34425,0.665,0.4534166666666667,구립 홍익어린이집,서울특별시 성동구 마장로 141,37.567877,127.0254834
211,11200000012,국공립,158,0.3884999999999999,0.1876666666666666,0.7,0.2007499999999999,0.422,0.3797833333333333,구립 금옥어린이집,서울특별시 성동구 매봉18길 1,37.5495649,127.0126844
212,11200000013,국공립,139,0.45525,0.2063333333333333,0.5660000000000001,0.19325,0.716,0.4273666666666667,구립 연꽃어린이집,서울특별시 성동구 한림말길 16-5,37.5404334,127.0127253
213,11200000014,국공립,242,0.324,0.1243333333333333,0.7805,0.42825,0.797,0.4908166666666666,구립 금봉어린이집,서울특별시 성동구 독서당로57가길 24 금봉어린이집,37.5531369,127.0283666
214,11200000015,국공립,40,0.4325,0.1283333333333333,0.6375,0.2266666666666666,0.836,0.4521999999999999,구립 사근다솜어린이집,서울특별시 성동구 사근동길 37,37.5614022,127.0453002
215,11200000016,국공립,201,0.39225,0.107,0.6375,0.2065,1.0,0.4686499999999999,구립 은행어린이집,서울특별시 성동구 고산자로10길 18,37.5585279,127.0361351
216,11200000017,국공립,223,0.28325,0.1236666666666666,0.6375,0.24,0.662,0.3892833333333333,구립 대현어린이집,서울특별시 성동구 행당로 15,37.5548474,127.0216381
217,11200000018,국공립,59,0.4655,0.167,0.669,0.08275,0.904,0.45765,구립 마장어린이집,서울특별시 성동구 마장로44길 10,37.5664526,127.0455301
218,11200000019,국공립,289,0.28375,0.0843333333333333,0.7,0.07575,0.523,0.3333666666666667,구립 금사어린이집,서울특별시 성동구 독서당로46길 26,37.5471659,127.022372
219,11200000020,국공립,252,0.38,0.1,0.6285000000000001,0.05975,1.0,0.43365,구립 성일어린이집,서울특별시 성동구 왕십리로16길 12-21,37.5500577,127.045907
220,11200000021,국공립,50,0.349,0.0406666666666666,0.669,0.0425,0.326,0.2854333333333333,구립 성수어린이집,서울특별시 성동구 광나루로2길 14,37.5495114,127.0533094
221,11200000022,국공립,151,0.308,0.088,0.6375,0.30625,0.345,0.3369499999999999,구립 금호어린이집,서울특별시 성동구 금호동2가 매봉18길 125 금호어린이집,37.5535702,127.0176106
222,11200000023,국공립,132,0.26525,0.1013333333333333,0.5660000000000001,0.1585,0.775,0.3732166666666667,구립 무학어린이집,서울특별시 성동구 난계로 114-31 금호베스트빌아파트 임대관리동,37.5613016,127.0257932
223,11200000024,국공립,127,0.393,0.1783333333333333,0.7,0.034,0.861,0.4332666666666666,구립 진터마루어린이집,서울특별시 성동구 둘레3길 18,37.5387302,127.0473615
224,11200000026,국공립,68,0.2634999999999999,0.0926666666666666,0.606,0.382,1.0,0.4688333333333333,구립 응봉어린이집,서울특별시 성동구 독서당로60길 12-7,37.54893879999999,127.0305541
225,11200000027,국공립,326,0.324,0.1123333333333333,0.606,0.296,1.0,0.4676666666666667,구립 행당어린이집,서울특별시 성동구 행당로 82 한진2차아파트 관리동2층,37.5559126,127.0290958
226,11200000028,국공립,68,0.2704999999999999,0.1083333333333333,0.6375,0.2995,0.831,0.4293666666666667,구립 도선어린이집,서울특별시 성동구 왕십리로30길 17-1,37.566074,127.0306511
227,11200000029,직장,0,0.3065,0.0726666666666666,0.5660000000000001,0.05925,0.379,0.2766833333333333,성동구청 무지개 어린이집,서울특별시 성동구 왕십리로 281 1층,37.55927255,127.035418
228,11200000030,국공립,122,0.32175,0.0843333333333333,0.5660000000000001,0.31225,0.143,0.2854666666666667,구립 성덕어린이집,서울특별시 성동구 성수이로3길 14-7,37.5371534,127.053066
229,11200000031,법인·단체등,87,0.2794999999999999,0.107,0.7805,0.3045,0.586,0.4114999999999999,본향어린이집,서울특별시 성동구 난계로 61 -46 본향어린이집,37.55757731,127.0229887
230,11200000032,국공립,41,0.35125,0.1013333333333333,0.503,0.273,0.456,0.3369166666666666,구립 서마어린이집,서울특별시 성동구 청계천로 546,37.5717349,127.0369067
231,11200000033,국공립,148,0.294,0.122,0.5660000000000001,0.056,1.0,0.4076000000000001,구립 성원어린이집,서울특별시 성동구 뚝섬로3길 18,37.5419956,127.0496531
232,11200000034,국공립,84,0.43,0.1316666666666666,0.669,0.41125,0.848,0.4979833333333333,구립 동호어린이집,서울특별시 성동구 금호동3가 금호산9길 9,37.5494779,127.0190581
233,11200000035,국공립,162,0.4439999999999999,0.173,0.7945,0.32975,0.667,0.4816499999999999,구립 금일어린이집,서울특별시 성동구 난계로 18,37.5536772,127.0248728
234,11200000038,법인·단체등,36,0.2784999999999999,0.106,0.646,0.286,0.979,0.4591,헤세드어린이집,서울특별시 성동구 독서당로 375,37.55018028,127.0294975
235,11200000041,국공립,156,0.281,0.0823333333333333,0.669,0.29325,0.373,0.3397166666666666,구립 단비어린이집,서울특별시 성동구 용답중앙길 49,37.5647745,127.0517491
236,11200000045,직장,0,0.283,0.1096666666666666,0.7,0.3515,0.523,0.3934333333333334,한양대학교 한양어린이집,서울특별시 성동구 왕십리로 222-1 한양대학교 내,37.55889657,127.0361608
237,11200000047,민간,42,0.25625,0.0786666666666666,0.7805,0.313,0.444,0.3744833333333333,성호 어린이집,서울특별시 성동구 금호산12길 10,37.5516573,127.0203596
238,11200000051,국공립,32,0.38675,0.09,0.7,0.25,0.692,0.4237499999999999,구립 송화어린이집,서울특별시 성동구 송정18가길 29,37.5549832,127.0692556
239,11200000052,민간,7,0.2784999999999999,0.126,0.6775,0.25,0.735,0.4133999999999999,예지어린이집,서울특별시 성동구 마장로27가길 15,37.5669256,127.0353847
240,11200000059,국공립,147,0.4267499999999999,0.0536666666666666,0.5345,0.10375,0.396,0.3029333333333334,구립 풍림아름다운어린이집,서울특별시 성동구 난계로 84 행당역풍림아이원아파트 관리동,37.5589659,127.0253152
241,11200000060,국공립,140,0.273,0.0516666666666666,0.5660000000000001,0.036,0.247,0.2347333333333333,구립 빛초롱어린이집,서울특별시 성동구 왕십리로 36 강변건영아파트 관리동 2층,37.5403473,127.0450066
242,11200000068,민간,27,0.3175,0.1433333333333333,0.503,0.04775,1.0,0.4023166666666666,꼬마에디슨 어린이집,서울특별시 성동구 금호동1가 금호로 100 벽산아파트 관리동,37.5518565,127.0271162
243,11200000070,국공립,94,0.3545,0.0926666666666666,0.6375,0.09325,1.0,0.4355833333333333,구립 벽산어린이집,서울특별시 성동구 금호동1가 행당로6길 2,37.5543445,127.025839
244,11200000072,민간,103,0.26225,0.0963333333333333,0.503,0.3255,1.0,0.4374166666666667,하니삐아제 어린이집,서울특별시 성동구 독서당로 272 대우아파트 관리사무소내 하니삐아제 어린이집,37.5448161,127.0238823
245,11200000077,민간,97,0.275,0.0886666666666666,0.749,0.29825,1.0,0.4821833333333333,튼튼삐아제어린이집,서울특별시 성동구 행당로 75 대림아파트제2관리소2층,37.5579013,127.0271186
246,11200000078,민간,81,0.391,0.125,0.5745,0.23325,1.0,0.46475,곤지잼잼 어린이집,서울특별시 성동구 성수동2가 성수일로10길 33 1층,37.5465918,127.0538704
247,11200000094,민간,33,0.38675,0.0693333333333333,0.7175,0.52875,0.751,0.4906666666666666,딩동댕어린이집,서울특별시 성동구 둘레13길 15,37.5361329,127.0530081
248,11200000106,민간,26,0.3384999999999999,0.0963333333333333,0.5435,0.20025,1.0,0.4357166666666666,피노키오어린이집,서울특별시 성동구 용답중앙15길 10,37.5642348,127.0536154
249,11200000109,가정,28,0.273,0.0226666666666666,0.432,0.0,0.489,0.2433333333333333,세림 어린이집,서울특별시 성동구 마장로42길 16 6동 104호,37.56499505,127.0451705
250,11200000112,가정,8,0.3465,0.039,0.503,0.0165,0.118,0.2046,아이꿈어린이집,서울특별시 성동구 행당로 79 122동 101호,37.55735443,127.0285183
251,11200000116,가정,173,0.454,0.0403333333333333,0.432,0.25,0.385,0.3122666666666667,아이사랑영재 어린이집,서울특별시 성동구 고산자로 164 102동 104호,37.55648282746455,127.0352743600251
252,11200000120,가정,111,0.26975,0.0403333333333333,0.5345,0.036,0.351,0.2463166666666666,하늘꿈어린이집,서울특별시 성동구 고산자로 164 116동 104호,37.55442725029113,127.0365941061529
253,11200000122,국공립,230,0.2555,0.0223333333333333,0.472,0.0,0.025,0.1549666666666666,성동종합사회복지관 부설 방과후 어린이집,서울특별시 성동구 청계천로 506 성동종합사회복지관 부설 방과후어린이집 3층,37.5704464,127.033811
254,11200000123,민간,85,0.38925,0.0606666666666666,0.6865,0.3107499999999999,0.662,0.4218333333333333,서울숲미래연 어린이집,서울특별시 성동구 금호로 15 서울숲푸르지오아파트 관리동 1층,37.54469840000001,127.0223406
255,11200000127,가정,95,0.217,0.0573333333333333,0.503,0.036,0.405,0.2436666666666666,한빛 어린이집,서울특별시 성동구 행당로 79 110동 102호,37.56091399,127.0281359
256,11200000128,가정,90,0.3419999999999999,0.0403333333333333,0.432,0.25,0.215,0.2558666666666667,라온어린이집,서울특별시 성동구 살곶이길 50 107동 102호,37.56952326,127.0424491
257,11200000129,가정,67,0.25975,0.0223333333333333,0.503,0.0,1.0,0.3570166666666666,두리두리어린이집,서울특별시 성동구 왕십리로31나길 22 3동 109호,37.56257201,127.0281483
258,11200000132,가정,123,0.4197499999999999,0.0573333333333333,0.503,0.0,0.093,0.2146166666666666,고운꽃뜰 어린이집,서울특별시 성동구 행당로 79 120동 102호,37.55735443,127.0285183
259,11200000133,가정,72,0.31975,0.0403333333333333,0.503,0.267,1.0,0.4260166666666666,금빛 어린이집,서울특별시 성동구 마장로37길 7 101동 102호,37.56682902,127.0387742
260,11200000134,국공립,225,0.34975,0.0223333333333333,0.503,0.0,0.076,0.1902166666666666,옥수종합사회복지관 부설 좋은벗방과후교실어린이집,서울특별시 성동구 한림말길 16-5 옥수종합사회복지관,37.5404275,127.0127724
261,11200000135,가정,179,0.26975,0.0213333333333333,0.5745,0.04475,0.323,0.2466666666666666,사랑 어린이집,서울특별시 성동구 무학로 50 107동 107호,37.56869402,127.0320285
262,11200000136,가정,11,0.2405,0.039,0.5745,0.04925,0.314,0.24345,건영아이자람어린이집,서울특별시 성동구 동일로 263 102동 101호,37.55592699,127.0708094
263,11200000138,가정,62,0.4197499999999999,0.0226666666666666,0.503,0.0,0.64,0.3170833333333333,꼬꼬마 어린이집,서울특별시 성동구 동호로 100 106동 101호,37.54989044,127.0162502
264,11200000140,가정,30,0.3385,0.0576666666666666,0.503,0.14125,0.0,0.2080833333333333,아이나무어린이집,서울특별시 성동구 마장로42길 16 1동 106호,37.56499505,127.0451705
265,11200000142,국공립,31,0.30225,0.104,0.5345,0.0,0.32,0.25215,구립 성모어린이집,서울특별시 성동구 청계천로 506,37.5703813,127.033664
266,11200000150,가정,230,0.398,0.0403333333333333,0.503,0.25,1.0,0.4382666666666667,꿈나무 어린이집,서울특별시 성동구 독서당로 218 104동 103호,37.54224776,127.0141915
267,11200000154,가정,160,0.31475,0.0226666666666666,0.503,0.0285,0.092,0.1921833333333333,또또 어린이집,서울특별시 성동구 행당로 82 111동 101호,37.55593461,127.0290936
268,11200000157,국공립,246,0.36425,0.1463333333333333,0.411,0.355,1.0,0.4553166666666667,구립 한솔어린이집,서울특별시 성동구 왕십리로11길 19 서울숲복합문화체육센터 1층,37.5490424,127.0414969
269,11200000164,국공립,140,0.3339999999999999,0.1503333333333333,0.8745,0.5265,1.0,0.5770666666666667,구립 행응어린이집,서울특별시 성동구 독서당로63길 34,37.55314620000001,127.0311626
270,11200000197,가정,72,0.312,0.0403333333333333,0.5745,0.0,0.755,0.3363666666666667,푸르지오 어린이집,서울특별시 성동구 금호동4가 독서당로 272 102동 101호,37.54633353056085,127.0198425321238
271,11200000222,가정,122,0.2729999999999999,0.0563333333333333,0.5745,0.18475,0.283,0.2743166666666666,짐키드어린이집,서울특별시 성동구 행당로 82 105동 104호,37.55593461,127.0290936
272,11200000223,가정,106,0.2729999999999999,0.039,0.503,0.274,0.275,0.2728,엔젤어린이집,서울특별시 성동구 행당로 82 113동 103호,37.55593461,127.0290936
273,11200000225,가정,72,0.31475,0.0753333333333333,0.432,0.2199166666666666,0.244,0.2572,아이원어린이집,서울특별시 성동구 난계로 84 107동 101호,37.55891341,127.025261
274,11200000226,가정,62,0.3915,0.074,0.503,0.1666666666666666,0.389,0.3048333333333333,엘림몬테소리어린이집,서울특별시 성동구 금호로 100 101동 103호,37.55052389208908,127.0274993168609
275,11200000283,민간,79,0.23425,0.0489999999999999,0.348,0.1495,0.429,0.2419499999999999,힐스테이트 어린이집,서울특별시 성동구 성수일로4길 26 서울숲힐스테이트 아파트 단지내 관리노인정 1층,37.541234,127.0521391
276,11200000287,가정,124,0.31975,0.039,0.432,0.01075,0.598,0.2799,꼬마숲어린이집,서울특별시 성동구 고산자로 164 105동 103호,37.55519044,127.0361429
277,11200000295,가정,44,0.3145,0.0576666666666666,0.472,0.16575,0.214,0.2447833333333333,디즈니 어린이집,서울특별시 성동구 독서당로 377 107동 102호,37.55099268,127.0309922
278,11200000299,국공립,226,0.3455,0.0479999999999999,0.5345,0.02075,0.576,0.30495,구립 동아어린이집,서울특별시 성동구 고산자로2길 13 구립동아어린이집,37.5525101,127.036748
279,11200000301,국공립,170,0.2065,0.0513333333333333,0.5345,0.0,1.0,0.3584666666666666,구립 행당푸르지오어린이집,서울특별시 성동구 고산자로 177,37.5551998,127.0324682
280,11200000304,가정,89,0.3834999999999999,0.0386666666666666,0.503,0.08775,0.422,0.2869833333333333,아이뜰어린이집,서울특별시 성동구 고산자로 160 대림강변아파트 112-101,37.55378856524229,127.0350561237248
281,11200000309,가정,170,0.36975,0.0403333333333333,0.432,0.2905,0.589,0.3443166666666666,엄마맘어린이집,서울특별시 성동구 금호로 107 103동 102호,37.55198184825223,127.0247752056073
282,11200000313,국공립,87,0.3075,0.0513333333333333,0.606,0.0135,0.587,0.3130666666666666,구립 사과꽃어린이집,서울특별시 성동구 금호로 111 래미안하이리버 임대동 1층,37.551444,127.025306
283,11200000314,가정,115,0.2665,0.0403333333333333,0.503,0.0,0.168,0.1955666666666667,토토어린이집,서울특별시 성동구 금호동4가 금호로 17 203동 104호,37.54688100208012,127.0240714815624
284,11200000315,국공립,174,0.38225,0.0483333333333333,0.5345,0.08,1.0,0.4090166666666667,구립 금호자이미소어린이집,서울특별시 성동구 금호로 117 금호자이1차아파트 관리동 1층,37.553024,127.0224087
285,11200000316,가정,111,0.329,0.0403333333333333,0.503,0.0,1.0,0.3744666666666666,으뜸꼬마숲어린이집,서울특별시 성동구 금호동1가 독서당로 343 203동 102호,37.54904626523365,127.0274535085331
286,11200000317,국공립,208,0.3625,0.158,0.5974999999999999,0.04575,0.489,0.3305499999999999,구립 왕십리어린이집,서울특별시 성동구 고산자로 262 구립 왕십리어린이집,37.5632153,127.0367465
287,11200000318,가정,80,0.3107499999999999,0.0403333333333333,0.503,0.0435,0.272,0.2339166666666666,예인꼬마숲어린이집,서울특별시 성동구 금호동4가 금호로 15 서울숲푸르지오 1차 105동 102호,37.54452873896341,127.022835052427
288,11200000319,가정,105,0.2312499999999999,0.04,0.503,0.0,0.099,0.17465,아이으뜸어린이집,서울특별시 성동구 뚝섬로 51 102동 101호,37.54203222124213,127.0194765936418
289,11200000322,국공립,253,0.3945,0.1506666666666666,0.6375,0.32475,0.523,0.4060833333333333,구립 래미안리버젠어린이집,서울특별시 성동구 매봉길 15 래미안리버젠아파트 관리동,37.5451492,127.0141611
290,11200000323,국공립,200,0.5285,0.106,0.5660000000000001,0.09925,0.397,0.33935,구립 래미안하이리버어린이집,서울특별시 성동구 금호동2가 금호로 107 래미안하이리버아파트 관리동,37.551444,127.025306
291,11200000326,국공립,125,0.40425,0.0479999999999999,0.5345,0.06325,1.0,0.41,구립 금호자이햇살어린이집,서울특별시 성동구 금호동3가 금호산8길 14 금호자이2차아파트 내,37.550437,127.0220203
292,11200000331,국공립,168,0.3455,0.0856666666666666,0.4509999999999999,0.36375,1.0,0.4491833333333333,구립 서울숲어린이집,서울특별시 성동구 금호동4가 금호로 17 서울숲 푸르지오2차 관리동,37.5463788,127.0239524
293,11200000333,가정,245,0.2729999999999999,0.0226666666666666,0.503,0.0635,0.874,0.3472333333333333,한울어린이집,서울특별시 성동구 독서당로 218 110-102,37.54263101168614,127.0155525888218
294,11200000336,국공립,254,0.39075,0.0469999999999999,0.4635,0.0335,1.0,0.38695,구립 독서당어린이집,서울특별시 성동구 매봉길 17 래미안리버젠 2단지,37.5451492,127.0141611
295,11200000339,직장,0,0.311,0.1076666666666666,0.606,0.1666666666666666,0.501,0.3384666666666667,우리은행어린이집,서울특별시 성동구 성수동2가 광나루로 324 우리은행 화양동지점,37.54793914736378,127.0657380690364
296,11200000341,국공립,95,0.3485,0.1316666666666666,0.7,0.30175,0.51,0.3983833333333333,구립 금삼어린이집,서울특별시 성동구 금호동3가 금호산길 14,37.5495358,127.0198078
297,11200000344,가정,115,0.31475,0.0926666666666666,0.503,0.25,1.0,0.4320833333333332,도담아이 어린이집,서울특별시 성동구 행당로 79 119동 103호,37.5582039955,127.0275066662
298,11200000345,국공립,95,0.3315,0.067,0.472,0.0895,1.0,0.392,구립 극동그린어린이집,서울특별시 성동구 독서당로 175,37.5419561,127.0099876
299,11200000346,가정,125,0.398,0.04,0.3605,0.28375,1.0,0.41645,센트라스어린이집,서울특별시 성동구 왕십리로 410 122동 102호,37.56575514891156,127.0279293734618
300,11200000350,국공립,89,0.32125,0.0673333333333333,0.669,0.1155,0.758,0.3862166666666667,구립 성이어린이집,서울특별시 성동구 성수동2가 성수이로6길 10-2,37.5364798,127.0550589
301,11200000351,국공립,97,0.39025,0.0846666666666666,0.5660000000000001,0.185,0.845,0.4141833333333333,구립 왕도어린이집,서울특별시 성동구 무학로6길 9,37.5655348,127.0311252
302,11200000354,국공립,61,0.28075,0.121,0.5345,0.1945,0.848,0.3957499999999999,구립 청계현대어린이집,서울특별시 성동구 마장로35길 76 마장현대아파트 관리동 1층,37.5692357,127.0426238
303,11200000355,국공립,211,0.3485,0.073,0.411,0.02125,0.846,0.33995,구립 매봉도담어린이집,서울특별시 성동구 매봉길 88,37.54922510000001,127.0128348
304,11200000356,국공립,304,0.3642499999999999,0.082,0.5974999999999999,0.392,1.0,0.48715,구립 텐즈힐두리어린이집,서울특별시 성동구 마장로 137,37.5693623,127.0247156
305,11200000357,국공립,150,0.35275,0.0463333333333333,0.5345,0.04625,0.351,0.2661666666666666,구립 서울숲더샵어린이집,서울특별시 성동구 왕십리로 241 서울숲더샵아 1층,37.5536986,127.0391633
306,11200000358,국공립,83,0.328,0.0903333333333333,0.5660000000000001,0.2379166666666666,0.432,0.33085,구립 우리어린이집,서울특별시 성동구 왕십리로21길 26-1 3층,37.5604135,127.0318882
307,11200000360,국공립,125,0.3075,0.0403333333333333,0.503,0.30675,0.197,0.2709166666666667,구립 가람어린이집,서울특별시 성동구 독서당로62길 43 6동 105호,37.5519304,127.0332646
308,11200000361,국공립,110,0.2794999999999999,0.0403333333333333,0.503,0.0675,0.436,0.2652666666666666,구립 금호키움어린이집,서울특별시 성동구 난계로 114-31 104-102,37.5613833,127.0258558
309,11200000362,국공립,182,0.349,0.089,0.5345,0.2017499999999999,0.861,0.4070499999999999,구립 별하어린이집,서울특별시 성동구 마장로39길 31,37.5681106,127.0430498
310,11200000363,국공립,133,0.32575,0.0896666666666666,0.7,0.07725,0.517,0.3419333333333333,구립 꽃초롱어린이집,서울특별시 성동구 마장로 164,37.5668309,127.0279076
311,11200000365,국공립,34,0.3195,0.1076666666666666,0.6375,0.092,1.0,0.4313333333333333,구립 송정햇살어린이집,서울특별시 성동구 송정12길 1,37.550147,127.0654833
312,11200000366,국공립,200,0.26575,0.0403333333333333,0.5745,0.08675,0.692,0.3318666666666666,구립 새솔어린이집,서울특별시 성동구 금호동2가 금호로 107 105동 102호,37.551292,127.0245415
313,11200000369,국공립,376,0.21025,0.0686666666666666,0.6375,0.04675,0.688,0.3302333333333333,구립 신금호자이어린이집,서울특별시 성동구 금호동2가 금호로 173 신금호파크자이 관리동,37.5556243,127.0187863
314,11200000370,국공립,353,0.283,0.0463333333333333,0.5345,0.04225,1.0,0.3812166666666666,구립 옥수파크어린이집,서울특별시 성동구 매봉길 50 110동,37.5483322,127.013891
315,11200000371,국공립,147,0.45975,0.0506666666666666,0.503,0.09525,1.0,0.4217333333333333,구립 옥수힐스어린이집,서울특별시 성동구 매봉길 50,37.5483322,127.013891
316,11200000373,국공립,275,0.31425,0.0316666666666666,0.5345,0.05775,0.287,0.2450333333333333,구립 센트라스라온어린이집,서울특별시 성동구 왕십리로 410 129동,37.56610999999999,127.0276467
317,11200000374,국공립,222,0.31525,0.1153333333333333,0.7,0.05,0.523,0.3407166666666666,구립 센트라스으뜸어린이집,"서울특별시 성동구 왕십리로 410 하왕십리동, 센트라스 128동",37.56610999999999,127.0276467
318,11200000375,국공립,339,0.30125,0.09,0.5345,0.18575,0.401,0.3025,구립 센트라스아띠어린이집,"서울특별시 성동구 왕십리로 410 하왕십리동, 센트라스 101동",37.56610999999999,127.0276467
319,11200000376,국공립,220,0.29325,0.075,0.5345,0.1135,0.861,0.3754499999999999,구립 센트라스나래어린이집,"서울특별시 성동구 왕십리로 410 하왕십리동, 123동",37.56610999999999,127.0276467
320,11200000377,국공립,108,0.29775,0.0403333333333333,0.5345,0.0,1.0,0.3745166666666666,구립 극동미라주어린이집,서울특별시 성동구 난계로 73 101동 110호,37.5584807,127.0233012
321,11200000380,직장,2,0.2525,0.054,0.843,0.31425,0.512,0.39515,서울시설공단 누비어린이집,서울특별시 성동구 왕십리로26길 29,37.5656916752,127.0329877595
322,11200000381,국공립,132,0.351,0.1096666666666666,0.4825,0.1700833333333333,0.523,0.32725,구립 왕십리자이어린이집,서울특별시 성동구 난계로 100,37.5604583,127.0247891
323,11200000383,직장,0,0.34575,0.1253333333333333,0.5345,0.2675,0.335,0.3216166666666666,서울교통공사 어린이집,서울특별시 성동구 자동차시장길 22 인재개발원 1층,37.56179409647753,127.0564330207954
324,11200000384,국공립,300,0.351,0.0656666666666666,0.5974999999999999,0.11225,0.961,0.4174833333333333,구립 이편한세상금호어린이집,서울특별시 성동구 금호로 140,37.5545452,127.0229844
325,11200000385,국공립,178,0.3112499999999999,0.1206666666666666,0.7,0.086,1.0,0.4435833333333333,구립 힐스테이트서울숲리버어린이집,서울특별시 성동구 금호동4가 금호로 40 힐스테이트서울숲리버아파트 관리동,37.5468032,127.0265652
326,11200000386,국공립,163,0.292,0.1143333333333333,0.7,0.18725,1.0,0.4587166666666666,구립 텐즈아이어린이집,서울특별시 성동구 무학로 33 114동 1층,37.5685653,127.0279662
327,11200000387,국공립,624,0.3764999999999999,0.077,0.669,0.03825,0.572,0.3465499999999999,구립 맑은샘어린이집,서울특별시 성동구 매봉길 51,37.5465851,127.0133818
328,11200000388,국공립,260,0.398,0.038,0.5660000000000001,0.07675,1.0,0.41575,구립 트리마제어린이집,서울특별시 성동구 성수동1가 왕십리로 16 관리동,37.5436099,127.0428194
329,11200000389,국공립,243,0.4155,0.1463333333333333,0.6375,0.31375,0.509,0.4044166666666666,구립 서울숲리버뷰자이어린이집,서울특별시 성동구 고산자로2길 65 행당동 100번지일대,37.5551969,127.0383378
330,11200000390,국공립,165,0.3107499999999999,0.04,0.5660000000000001,0.29975,1.0,0.4432999999999999,구립 스위첸숲속어린이집,서울특별시 성동구 무학봉길 35,37.5608428,127.0266872
331,11200000391,국공립,100,0.242,0.0223333333333333,0.606,0.0,0.501,0.2742666666666666,구립 성수롯데캐슬어린이집,서울특별시 성동구 성수동2가 성수일로8길 47 관리동,37.5460479,127.0559586
332,11200000392,국공립,481,0.31425,0.0643333333333333,0.503,0.0755,0.523,0.2960166666666667,구립 해온어린이집,서울특별시 성동구 성수동1가 왕십리로5길 3,37.5463347,127.0443951
333,11200000393,국공립,203,0.31875,0.0796666666666666,0.432,0.2025,1.0,0.4065833333333334,구립 행당한신어린이집,서울특별시 성동구 고산자로 164 관리동 2층,37.5551292,127.036254
334,11200000394,국공립,63,0.2835,0.19,0.657,0.24575,0.505,0.37625,구립 왕십리하나어린이집,서울특별시 성동구 무학봉16길 9-3,37.5609112,127.0320106
335,11200000395,국공립,85,0.2925,0.0696666666666666,0.5345,0.20525,0.396,0.2995833333333333,구립 성수아이파크어린이집,서울특별시 성동구 성수이로 137 관리동 1층,37.54740719999999,127.0566112
336,11200000396,직장,0,0.27075,0.143,0.6285000000000001,0.17575,1.0,0.4436,모두의 숲 어린이집,서울특별시 성동구 상원6나길 22-7,37.54753875557011,127.0498872020663
337,11200000397,직장,0,0.275,0.054,0.5974999999999999,0.23975,0.45,0.3232499999999999,현대글로비스 서울숲 어린이집,서울특별시 성동구 서울숲4길 5,37.54777508554885,127.0416392825835
338,11200000408,가정,33,0.0965,0.0226666666666666,0.432,0.0,0.383,0.1868333333333333,햇살 어린이집,서울특별시 성동구 동호로 84 103동 102호,37.54690379366089,127.0174267078918
339,11200000409,국공립,195,0.298,0.0883333333333333,0.514,0.112,0.335,0.2694666666666666,구립 서울숲아이파크리버어린이집,서울특별시 성동구 왕십리로 137,37.5536986,127.0391633
340,11200000410,국공립,-,0.0065,0.0029999999999999,0.0,0.0,0.0,0.0019,구립 행당라체르보어린이집,서울특별시 성동구 고산자로2길 71,37.5543044,127.037018
341,11215000004,가정,31,0.43975,0.0753333333333333,0.5345,0.29725,1.0,0.4693666666666667,EQ어린이집,서울특별시 광진구 동일로26길 41,37.54489788042541,127.0682975161844
342,11215000005,협동,0,0.35,0.109,0.2855,0.1666666666666666,0.0,0.1822333333333333,즐거운산들어린이집,서울특별시 광진구 자양로50길 74,37.5527353548039,127.0963159298234
343,11215000006,가정,0,0.454,0.039,0.432,0.25,0.949,0.4248,상상놀이터어린이집,서울특별시 광진구 자양로6길 9,37.53208577711285,127.0864459468778
344,11215000008,가정,17,0.4265,0.023,0.472,0.0,1.0,0.3843,해오름어린이집,서울특별시 광진구 자양로50가길 41,37.55373881243763,127.0943570994135
345,11215000009,민간,-,0.3376666666666666,0.0336666666666666,0.606,0.25,0.0,0.2454666666666666,함초롬어린이집,서울특별시 광진구 군자로 176,37.5562143,127.0778949
346,11215000012,국공립,55,0.3974999999999999,0.1016666666666666,0.606,0.27525,1.0,0.4760833333333333,구립 자양4동어린이집,서울특별시 광진구 아차산로32길 17,37.539105,127.0683974
347,11215000013,민간,6,0.36225,0.0699999999999999,0.749,0.38475,1.0,0.5132,한국중앙어린이집,서울특별시 광진구 능동로 447,37.5686098,127.0849881
348,11215000014,국공립,135,0.404,0.142,0.5745,0.1055,0.657,0.3766,구립 자양2동어린이집,서울특별시 광진구 자양로3가길 26,37.5288513,127.084505
349,11215000015,민간,4,0.238,0.1193333333333333,0.812,0.89575,0.588,0.5306166666666667,푸르내어린이집,서울특별시 광진구 긴고랑로36길 15,37.55836790000001,127.0895236
350,11215000016,민간,35,0.3455,0.0713333333333333,0.606,0.125,1.0,0.4295666666666666,해든어린이집,서울특별시 광진구 능동로3마길 1,37.53432859999999,127.0642358
351,11215000018,국공립,53,0.3025,0.147,0.7315,0.16925,0.671,0.40425,구립 군자어린이집,서울특별시 광진구 동일로56가길 31,37.5545939,127.0726932
352,11215000030,민간,19,0.4504999999999999,0.191,0.688,0.5129166666666667,0.61,0.4904833333333333,신나는어린이집,서울특별시 광진구 광나루로40길 78,37.5413438,127.0886973
353,11215000031,국공립,228,0.4695,0.217,0.6375,0.2745833333333333,0.507,0.4211166666666666,구립 자양어린이집,서울특별시 광진구 자양번영로 35,37.5328982,127.0752311
354,11215000032,민간,15,0.3427499999999999,0.1566666666666666,0.657,0.556,0.808,0.5040833333333333,광진어린이집,서울특별시 광진구 아차산로40길 9,37.5372071,127.0786579
355,11215000034,직장,0,0.25175,0.0763333333333333,0.6375,0.04575,0.846,0.3714666666666666,광진구청직장어린이집,서울특별시 광진구 아차산로 400 광진구청 4층,37.53872654013966,127.0820144985875
356,11215000035,국공립,54,0.484,0.2033333333333333,0.723,0.08325,0.65,0.4287166666666667,구립 중곡샛별어린이집,서울특별시 광진구 동일로 458,37.5709489,127.0802709
357,11215000036,국공립,109,0.37725,0.1633333333333333,0.669,0.1666666666666666,0.456,0.36645,구립 동서울어린이집,서울특별시 광진구 광나루로44길 23,37.5431665,127.0914625
358,11215000037,국공립,62,0.32125,0.08,0.5660000000000001,0.281,0.184,0.28645,구립 수호천사어린이집,서울특별시 광진구 긴고랑로17길 8,37.5627471,127.0841737
359,11215000041,가정,42,0.3555,0.039,0.432,0.0565,0.388,0.2542,아힘나어린이집,서울특별시 광진구 능동로3길 17 101동 106호,37.5332454432866,127.0660962682775
360,11215000045,민간,18,0.3875,0.0506666666666666,0.472,0.0,0.0,0.1820333333333333,엄마사랑어린이집,서울특별시 광진구 면목로 164,37.5677519,127.0824705
361,11215000046,국공립,36,0.40775,0.1436666666666666,0.606,0.2105,1.0,0.4735833333333333,구립 은성어린이집,서울특별시 광진구 동일로4길 52,37.5356722,127.0637999
362,11215000051,가정,40,0.3915,0.0403333333333333,0.472,0.01925,0.216,0.2278166666666666,꼬꼬마어린이집,서울특별시 광진구 아차산로 451 101동 105호,37.53924542620672,127.0920852215584
363,11215000052,국공립,298,0.3595,0.1826666666666666,0.606,0.291,1.0,0.4878333333333333,구립 효지어린이집,서울특별시 광진구 아차산로36길 55,37.5360961,127.0738473
364,11215000053,국공립,61,0.39625,0.1433333333333333,0.669,0.22975,1.0,0.4876666666666667,구립 중앙어린이집,서울특별시 광진구 자양로13다길 31,37.5329631,127.0780927
365,11215000056,국공립,422,0.49175,0.107,0.669,0.0895,1.0,0.4714499999999999,구립 구의3동어린이집,서울특별시 광진구 광나루로54길 36,37.5393442,127.0951136
366,11215000057,국공립,70,0.31775,0.085,0.5660000000000001,0.27825,0.744,0.3982,구립 대원어린이집,서울특별시 광진구 자양로43길 115,37.55559530000001,127.0889584
367,11215000064,국공립,53,0.31875,0.1316666666666666,0.6375,0.0475,1.0,0.4270833333333333,구립 중곡1동어린이집,서울특별시 광진구 능동로43길 27-14,37.5609231,127.079628
368,11215000067,민간,-,0.0,0.0523333333333333,0.503,0.0,0.18,0.1470666666666666,구의미소어린이집,서울특별시 광진구 자양로 297,37.5522297,127.0923365
369,11215000068,민간,24,0.326,0.1166666666666666,0.7090000000000001,0.354,0.861,0.4733333333333334,키즈용맹어린이집,서울특별시 광진구 영화사로5길 15,37.5569547,127.091782
370,11215000069,국공립,45,0.3305,0.1423333333333333,0.503,0.038,0.719,0.3465666666666666,구립 진성어린이집,서울특별시 광진구 용마산로 152,37.567174,127.0865292
371,11215000078,민간,0,0.16975,0.0546666666666666,0.3605,0.25,1.0,0.3669833333333333,산위의마을어린이집,서울특별시 광진구 용마산로7길 39,37.559484,127.0854675
372,11215000079,국공립,89,0.17525,0.114,0.5974999999999999,0.01525,1.0,0.3803999999999999,구립 명성어린이집,서울특별시 광진구 아차산로55길 59,37.54008719999999,127.0863423
373,11215000085,국공립,57,0.4085,0.1303333333333333,0.5974999999999999,0.1755833333333333,0.846,0.4315833333333333,구립 화송어린이집,서울특별시 광진구 능동로13길 108,37.5461942,127.0680523
374,11215000086,민간,155,0.3695,0.0723333333333333,0.503,0.3455,1.0,0.4580666666666667,보배어린이집,서울특별시 광진구 아차산로36길 39 3동 1호,37.5363514,127.0745967
375,11215000087,가정,39,0.4265,0.0403333333333333,0.5745,0.0,1.0,0.4082666666666666,아이스쿨어린이집,서울특별시 광진구 용마산로3길 91-4,37.557007,127.083
376,11215000091,민간,13,0.39575,0.1753333333333333,0.843,0.12225,0.641,0.4354666666666666,으뜸어린이집,서울특별시 광진구 능동로4길 88,37.5308807,127.0711483
377,11215000092,민간,43,0.2655,0.0663333333333333,0.4635,0.00475,1.0,0.3600166666666667,지안어린이집,서울특별시 광진구 뚝섬로58가길 26-4,37.5305145,127.083319
378,11215000094,국공립,58,0.39075,0.1563333333333333,0.606,0.03075,0.416,0.3199666666666667,구립 성심어린이집,서울특별시 광진구 용마산로3길 60,37.5565943,127.084988
379,11215000096,국공립,32,0.3082499999999999,0.075,0.6375,0.01625,0.502,0.3078,구립 느티나무어린이집,서울특별시 광진구 광나루로26길 39,37.5454114,127.07809
380,11215000109,국공립,78,0.4034999999999999,0.158,0.495,0.3091666666666666,0.434,0.3599333333333333,구립 능동어린이집,서울특별시 광진구 천호대로114길 47,37.5535746,127.081947
381,11215000111,국공립,180,0.47175,0.2873333333333334,0.606,0.1009999999999999,0.34,0.3612166666666666,구립 사랑의어린이집,서울특별시 광진구 아차산로66길 8,37.5410448,127.0971341
382,11215000112,국공립,26,0.22375,0.1213333333333333,0.5449999999999999,0.072,0.291,0.2506166666666666,구립 구의2동어린이집,서울특별시 광진구 자양로44길 91,37.5501934,127.0962643
383,11215000115,민간,172,0.32075,0.089,0.749,0.35925,0.737,0.4509999999999999,파크빌어린이집,서울특별시 광진구 아차산로 549 현대파크빌단지내,37.5438979,127.1014612
384,11215000117,민간,2,0.32625,0.1263333333333333,0.812,0.8355,0.437,0.5074166666666666,중곡4동어린이집,서울특별시 광진구 긴고랑로 149-8,37.5590745,127.091857
385,11215000118,민간,10,0.27525,0.079,0.401,0.202,1.0,0.3914499999999999,자양민들레어린이집,서울특별시 광진구 뚝섬로52마길 32,37.5288547,127.0800218
386,11215000120,국공립,26,0.22375,0.092,0.4195,0.308,1.0,0.40865,구립 상명어린이집,서울특별시 광진구 동일로80길 30,37.5699408,127.081418
387,11215000121,민간,2,0.29325,0.11,0.7195,0.53425,0.791,0.4896,솔로몬어린이집,서울특별시 광진구 긴고랑로7길 73,37.5665723,127.0806756
388,11215000125,가정,79,0.2405,0.0563333333333333,0.432,0.1655,0.663,0.3114666666666666,사랑어린이집,서울특별시 광진구 뚝섬로35길 32 306동 102호,37.53617956673683,127.0714845224028
389,11215000130,가정,55,0.32525,0.0226666666666666,0.432,0.04725,0.354,0.2362333333333333,현대몬테소리어린이집,서울특별시 광진구 광나루로56길 32 207동 106호,37.5374556589018,127.0949071616192
390,11215000131,가정,86,0.36975,0.039,0.432,0.28075,1.0,0.4243,해피i어린이집,서울특별시 광진구 아차산로36길 35 702-105,37.53708104951532,127.074101655276
391,11215000132,가정,17,0.273,0.0403333333333333,0.5345,0.31575,0.269,0.2865166666666667,용곡어린이집,서울특별시 광진구 능동로48길 64 운형빌라 101호,37.56177622736819,127.086047315341
392,11215000134,가정,15,0.351,0.0403333333333333,0.3605,0.0385,0.0,0.1580666666666666,꿈꾸는어린이집,서울특별시 광진구 능동로50길 23,37.56383,127.0847
393,11215000152,민간,55,0.31675,0.0963333333333333,0.6375,0.0,1.0,0.4101166666666666,한울어린이집,서울특별시 광진구 천호대로117길 51,37.5572139,127.0851608
394,11215000153,민간,9,0.39675,0.0663333333333333,0.5345,0.0805,1.0,0.4156166666666666,아이들세상어린이집,서울특별시 광진구 긴고랑로26길 31,37.5591116,127.0849837
395,11215000158,민간,16,0.349,0.09,0.5345,0.125,0.836,0.3868999999999999,예일어린이집,서울특별시 광진구 자양로47길 11,37.5522207,127.0918032
396,11215000159,민간,24,0.32225,0.0616666666666666,0.5345,0.0635,0.523,0.3009833333333333,아이짐어린이집,서울특별시 광진구 광나루로37길 8,37.545292,127.0876853
397,11215000163,가정,18,0.381,0.1066666666666666,0.289,0.05,0.523,0.2699333333333333,서울숲어린이집,서울특별시 광진구 뚝섬로28길 13,37.53572814899905,127.0652894831662
398,11215000164,가정,-,0.50325,0.0576666666666666,0.7175,0.0,0.0,0.2556833333333334,키즈랜드어린이집,서울특별시 광진구 능동로48길 56,37.56175845854066,127.0857020871466
399,11215000170,민간,68,0.305,0.0526666666666666,0.432,0.1,0.8,0.3379333333333333,리틀지니어스어린이집,서울특별시 광진구 자양로26길 50,37.5410171,127.086652
400,11215000174,민간,59,0.37575,0.0486666666666666,0.4635,0.32075,0.747,0.3911333333333333,사임당어린이집,서울특별시 광진구 아차산로46가길 23 101호,37.5363272,127.0822544
401,11215000175,가정,27,0.31475,0.0573333333333333,0.503,0.29375,0.421,0.3179666666666667,대서울어린이집,서울특별시 광진구 자양번영로3길 15,37.53170216274285,127.0742125182801
402,11215000184,민간,31,0.37275,0.1443333333333333,0.6285000000000001,0.2355,1.0,0.4762166666666667,늘평화어린이집,서울특별시 광진구 능동로51길 17,37.5659621,127.0831401
403,11215000185,민간,87,0.29475,0.0776666666666666,0.4635,0.04775,1.0,0.3767333333333333,좋은어린이집,서울특별시 광진구 구의강변로3길 31,37.5362022,127.0903386
404,11215000187,민간,22,0.28225,0.0903333333333333,0.503,0.0935,1.0,0.3938166666666666,예랑어린이집,서울특별시 광진구 자양로51길 11-12,37.5533657,127.0923343
405,11215000190,가정,8,0.301,0.053,0.432,0.2675,0.251,0.2609,꼬마사랑어린이집,서울특별시 광진구 긴고랑로8길 14,37.562775,127.07862
406,11215000196,민간,74,0.24825,0.044,0.6775,0.4014999999999999,0.542,0.38265,영화어린이집,서울특별시 광진구 영화사로 105,37.5540563,127.0977109
407,11215000197,민간,95,0.27275,0.1203333333333333,0.503,0.17725,0.426,0.2998666666666666,한라어린이집,서울특별시 광진구 뚝섬로33길 20,37.5356572,127.0700386
408,11215000210,가정,22,0.2165,0.0376666666666666,0.432,0.25,0.0,0.1872333333333333,대공원어린이집,서울특별시 광진구 천호대로116길 22-12,37.5528043194665,127.0832247413379
409,11215000217,민간,34,0.32475,0.0573333333333333,0.5745,0.56325,1.0,0.5039666666666667,다예린어린이집,서울특별시 광진구 광장로 65,37.5475267,127.1043079
410,11215000220,가정,0,0.43,0.0403333333333333,0.503,0.0,0.0,0.1946666666666666,나섬어린이집,서울특별시 광진구 광장로1나길 4 107호,37.5486646724613,127.1028334409623
411,11215000233,가정,78,0.31475,0.0576666666666666,0.503,0.125,0.046,0.2092833333333333,향기나무어린이집,서울특별시 광진구 아차산로 552 극동아파트 6동 105호,37.54672855764388,127.103745147215
412,11215000282,가정,150,0.23425,0.0576666666666666,0.5345,0.26,0.345,0.2862833333333333,아이누리어린이집,서울특별시 광진구 뚝섬로33길 20,37.53508691364127,127.069920697808
413,11215000286,직장,0,0.23525,0.126,0.7,0.2555,0.453,0.35395,워커힐행복어린이집,서울특별시 광진구 워커힐로 177,37.55613965501179,127.1105167191361
414,11215000290,민간,125,0.34175,0.0526666666666666,0.503,0.124,0.596,0.3234833333333333,아이비키즈어린이집,"서울특별시 광진구 뚝섬로35길 14 (자양동, 한라아파트, 상가 B동 101호",37.5352903,127.0704614
415,11215000301,가정,56,0.3562499999999999,0.0563333333333333,0.5745,0.04875,0.534,0.3139666666666666,극동예랑어린이집,서울특별시 광진구 아차산로 552 6동 109호,37.5436776211036,127.1060085997993
416,11215000302,가정,32,0.3075,0.0563333333333333,0.503,0.1635,0.282,0.2624666666666667,고은아이어린이집,서울특별시 광진구 능동로3길 53 1동 102호,37.53422499599731,127.0645181625069
417,11215000309,가정,72,0.36975,0.0213333333333333,0.503,0.045,0.539,0.2956166666666667,현대아이사랑어린이집,서울특별시 광진구 광나루로56길 32 208동105호,37.53782582239961,127.0962201141851
418,11215000313,가정,5,0.2279999999999999,0.0403333333333333,0.503,0.01825,0.556,0.2691166666666666,군자티움아이어린이집,서울특별시 광진구 동일로38길 8 1층,37.55136968436278,127.0699611971974
419,11215000315,민간,15,0.255,0.1396666666666667,0.749,0.573,0.615,0.4663333333333334,사랑숲어린이집,서울특별시 광진구 영화사로9길 95-2,37.5577589,127.0956311
420,11215000318,가정,165,0.27625,0.0576666666666666,0.432,0.0195,1.0,0.3570833333333333,프라임사랑어린이집,서울특별시 광진구 광나루로56길 29 11동 102호,37.53695344416799,127.0964905577069
421,11215000324,가정,146,0.2665,0.0213333333333333,0.503,0.0,1.0,0.3581666666666666,강변에코비어린이집,서울특별시 광진구 구의강변로 42 101동 108호,37.53559161145404,127.092917830867
422,11215000326,국공립,25,0.34225,0.1066666666666666,0.5660000000000001,0.1260833333333333,0.696,0.3674,구립 희망샘어린이집,서울특별시 광진구 긴고랑로37길 8,37.5593016,127.0902144
423,11215000329,국공립,135,0.3135,0.1389999999999999,0.669,0.26125,0.412,0.35895,구립 한가람어린이집,서울특별시 광진구 자양번영로2길 30-1,37.5300732,127.0766735
424,11215000330,국공립,295,0.3555,0.0403333333333333,0.606,0.0155,1.0,0.4034666666666666,구립 바니스쿨어린이집,서울특별시 광진구 광나루로56길 32 구의현대2단지아파트 215동 104호,37.5392006,127.0972946
425,11215000331,국공립,45,0.24825,0.04,0.5660000000000001,0.2655,0.19,0.26195,구립 중곡햇님어린이집,서울특별시 광진구 능동로48길 49 101호,37.5620819,127.085487
426,11215000333,국공립,84,0.3515,0.1576666666666666,0.669,0.12125,0.853,0.4304833333333334,구립 중곡1동 자람터어린이집,서울특별시 광진구 긴고랑로8길 76,37.5603022,127.0772262
427,11215000334,국공립,67,0.35125,0.1193333333333333,0.7,0.1310833333333333,0.348,0.3299333333333333,구립 능동 꿈맞이어린이집,서울특별시 광진구 천호대로120길 32,37.5528073,127.0859664
428,11215000335,국공립,110,0.3555,0.0753333333333333,0.4635,0.0833333333333333,0.12,0.2195333333333333,구립 휴먼시아어린이집,서울특별시 광진구 천호대로 716 102동 102호,37.5478556,127.0930755
429,11215000336,국공립,60,0.27775,0.0226666666666666,0.5745,0.0,0.279,0.2307833333333333,구립 원스쿨어린이집,서울특별시 광진구 아차산로69길 19 현대아파트 902동 104호,37.5425096,127.0977483
430,11215000337,국공립,153,0.2925,0.1263333333333333,0.7315,0.126,0.459,0.3470666666666666,구립 구의1동 아이터어린이집,서울특별시 광진구 자양로23길 79,37.5438551,127.0837845
431,11215000338,국공립,230,0.34325,0.0403333333333333,0.503,0.0725,0.268,0.2454166666666666,구립 굿모닝어린이집,서울특별시 광진구 아차산로 552 2동105호,37.5431583,127.1041888
432,11215000339,국공립,193,0.221,0.0226666666666666,0.606,0.0,0.792,0.3283333333333333,구립 샘터어린이집,서울특별시 광진구 아차산로 503-23 102동 102호,37.5424654,127.0962926
433,11215000340,국공립,235,0.3135,0.0223333333333333,0.503,0.06175,0.308,0.2417166666666666,구립 예담어린이집,서울특별시 광진구 아차산로 537-17 광장힐스테이트 관리동,37.5433454,127.0997083
434,11215000341,국공립,125,0.2205,0.062,0.5660000000000001,0.03675,0.154,0.20785,구립 능동주민센터어린이집,서울특별시 광진구 천호대로112길 55 능동주민센터 1층,37.5537168,127.0805313
435,11215000342,국공립,285,0.31975,0.0403333333333333,0.432,0.01925,0.343,0.2308666666666666,구립 건대티움아이어린이집,서울특별시 광진구 능동로4길 41 701동 101호,37.5329775,127.0697684
436,11215000343,국공립,11,0.2002499999999999,0.0663333333333333,0.503,0.1689999999999999,0.421,0.2719166666666667,구립 인정어린이집,서울특별시 광진구 동일로 242,37.5530854,127.0704544
437,11215000344,국공립,46,0.315,0.0913333333333333,0.669,0.25,0.435,0.3520666666666667,구립 군자동 꿈모음어린이집,서울특별시 광진구 군자로12길 6-4,37.5507003,127.071358
438,11215000345,국공립,73,0.3005,0.2136666666666666,0.5974999999999999,0.16725,0.423,0.3403833333333333,구립 자양1동 봄뜰어린이집,서울특별시 광진구 자양로9길 30,37.5336175,127.0828085
439,11215000346,국공립,136,0.37625,0.1186666666666666,0.5345,0.30475,0.721,0.4110333333333333,구립 파크스위트어린이집,서울특별시 광진구 광나루로 545 110동 1층,37.54584690000001,127.0900916
440,11215000347,국공립,205,0.2794999999999999,0.0403333333333333,0.503,0.0,0.113,0.1871666666666666,구립 아띠어린이집,서울특별시 광진구 광나루로56길 32,37.5386271,127.0958742
441,11215000348,국공립,117,0.31975,0.0403333333333333,0.5745,0.0,0.021,0.1911166666666666,구립 미래어린이집,서울특별시 광진구 아차산로 503-23 104동 113호,37.5424654,127.0962926
442,11215000349,국공립,85,0.4509999999999999,0.0226666666666666,0.503,0.018,0.371,0.2731333333333333,구립 베베아이어린이집,서울특별시 광진구 아차산로 549 1008동 101호,37.5441452,127.1015274
443,11215000350,국공립,60,0.251,0.0403333333333333,0.472,0.0,0.054,0.1634666666666666,구립 물고기어린이집,서울특별시 광진구 뚝섬로34길 25-19 1006동 102호,37.5334492,127.0704997
444,11215000351,국공립,173,0.54775,0.0403333333333333,0.472,0.25,0.054,0.2728166666666666,구립 봄빛어린이집,서울특별시 광진구 능동로 19 101동 103호,37.53308800000001,127.0668267
445,11215000352,국공립,130,0.38775,0.0403333333333333,0.503,0.3155,0.063,0.2619166666666667,구립 행복마루어린이집,서울특별시 광진구 뚝섬로56가길 10,37.5285792,127.0834469
446,11215000353,국공립,55,0.399,0.074,0.5660000000000001,0.2925,0.383,0.3429,구립 하늘땅별땅어린이집,서울특별시 광진구 동일로56길 15,37.5560992,127.0729599
447,11215000354,국공립,134,0.351,0.0226666666666666,0.503,0.02325,0.137,0.2073833333333333,구립 사랑모아어린이집,서울특별시 광진구 광나루로56길 32 구의현대아파트 202동 103호,37.5380348,127.0966531
448,11215000355,직장,0,0.385,0.108,0.5974999999999999,0.0993333333333333,0.0,0.2379666666666666,KB구의 어린이집,서울특별시 광진구 광나루로 525 3층,37.54511533900246,127.088002763773
449,11215000356,국공립,109,0.4275,0.075,0.6375,0.0525,0.288,0.2961,구립 우리아이어린이집,서울특별시 광진구 구의로4길 21 구의동,37.54016319999999,127.0908338
450,11215000357,국공립,71,0.2324999999999999,0.0906666666666666,0.5974999999999999,0.05325,0.523,0.2993833333333333,구립 아이와나무어린이집,서울특별시 광진구 천호대로123길 4-4,37.55523489999999,127.0871708
451,11215000358,국공립,116,0.4,0.0223333333333333,0.503,0.0,0.0,0.1850666666666666,구립 샘물어린이집,서울특별시 광진구 뚝섬로58길 56 101호,37.5298506,127.0853143
452,11215000359,국공립,187,0.32075,0.0606666666666666,0.669,0.317,0.367,0.3468833333333333,구립 중곡하나어린이집,서울특별시 광진구 동일로76길 59,37.5681367,127.0819405
453,11215000360,국공립,89,0.31125,0.1333333333333333,0.763,0.0305,0.336,0.3148166666666667,구립 자양도담어린이집,서울특별시 광진구 아차산로44가길 5,37.5362081,127.0799006
454,11215000361,국공립,223,0.25875,0.0546666666666666,0.5660000000000001,0.32925,0.267,0.2951333333333333,구립 자양호반써밋어린이집,서울특별시 광진구 능동로 69 어린이집,37.550113,127.0771058
455,11215000362,국공립,197,0.24575,0.082,0.7,0.12125,0.204,0.2706,구립 광진그랜드파크어린이집,서울특별시 광진구 광나루로 458 어린이집,37.5441172,127.080781
456,11215000365,국공립,168,0.30325,0.0763333333333333,0.411,0.09425,1.0,0.3769666666666666,구립 자양롯데캐슬어린이집,서울특별시 광진구 뚝섬로 467,37.5341645,127.0782095
457,11215000366,국공립,86,0.24825,0.0413333333333333,0.4235,0.30375,1.0,0.4033666666666667,구립 새벽어린이집,서울특별시 광진구 영화사로 53 1층,37.5556648,127.0925201
458,11215000368,국공립,199,0.2002499999999999,0.039,0.432,0.27175,0.171,0.2228,구립 해달별어린이집,서울특별시 광진구 구의강변로3가길 39 701동 102호,37.5368372,127.0909305
459,11215000369,국공립,387,0.2299999999999999,0.1316666666666666,0.486,0.1025,0.437,0.2774333333333333,구립 자양이스트폴어린이집,서울특별시 광진구 뚝섬로 717 구립 자양이스트폴어린이집,37.5341645,127.0782095
460,11215000370,국공립,-,0.0,0.0003333333333333,0.3835,0.0,0.0,0.0767666666666666,구립 자양 어울채어린이집,서울특별시 광진구 아차산로58길 58 구립 자양 어울채어린이집,37.5350591,127.0893878
461,11230000005,국공립,120,0.4039999999999999,0.105,0.6375,0.19025,0.485,0.36435,이문어린이집,서울특별시 동대문구 신이문로 9,37.6037041,127.0630088
462,11230000006,국공립,50,0.299,0.211,0.669,0.252,0.399,0.366,꿈마루어린이집,서울특별시 동대문구 전농로36길 29-3 꿈마루어린이집,37.5854619,127.0540223
463,11230000007,국공립,176,0.35725,0.1603333333333333,0.669,0.1393333333333333,1.0,0.4651833333333333,메꽃어린이집,서울특별시 동대문구 답십리로 320-1,37.5717712,127.0760624
464,11230000010,민간,31,0.374,0.1263333333333333,0.7175,0.454,0.975,0.5293666666666667,한신어린이집,서울특별시 동대문구 제기로 131 청량한신2차아파트 단지동,37.5877279,127.0487676
465,11230000015,국공립,104,0.32575,0.1246666666666666,0.6375,0.29125,0.366,0.3490333333333333,단비어린이집,서울특별시 동대문구 답십리로26길 12,37.5751677,127.0475856
466,11230000026,국공립,143,0.38325,0.1513333333333333,0.5660000000000001,0.09975,0.744,0.3888666666666667,도담어린이집,서울특별시 동대문구 사가정로17길 21 구립 도담 어린이집,37.57877149999999,127.0597554
467,11230000027,국공립,84,0.33525,0.1023333333333333,0.503,0.0465,0.373,0.2720166666666667,휘경어린이집,서울특별시 동대문구 망우로 46,37.5891308,127.06166
468,11230000030,국공립,65,0.18575,0.1066666666666666,0.5660000000000001,0.1350833333333333,0.323,0.2633,유마어린이집,서울특별시 동대문구 제기로31길 10-3,37.5881519,127.0473637
469,11230000032,민간,133,0.37975,0.1436666666666667,0.657,0.5114166666666666,1.0,0.5383666666666667,동화어린이집,서울특별시 동대문구 망우로12가길 20,37.5886871,127.0602367
470,11230000038,민간,29,0.3415,0.12,0.812,0.6809166666666666,0.816,0.5540833333333334,글샘어린이집,서울특별시 동대문구 천호대로35길 39,37.57506740000001,127.0416868
471,11230000049,국공립,54,0.32125,0.124,0.5660000000000001,0.24175,0.399,0.3304,용두희망어린이집,서울특별시 동대문구 무학로49길 75,37.579757,127.026335
472,11230000053,국공립,88,0.31225,0.1646666666666666,0.5660000000000001,0.3175,0.392,0.3504833333333333,햇살어린이집,서울특별시 동대문구 청계천로 547,37.5728161,127.0369347
473,11230000054,국공립,82,0.32975,0.1656666666666666,0.5345,0.2704166666666666,1.0,0.4600666666666667,배봉어린이집,서울특별시 동대문구 사가정로25길 51,37.58115129999999,127.0706817
474,11230000055,민간,-,0.5197499999999999,0.0446666666666666,0.5660000000000001,0.0,0.0,0.2260833333333333,천응방과후어린이집,서울특별시 동대문구 제기로 128-6,37.5864228,127.0470102
475,11230000056,민간,29,0.348,0.1456666666666667,0.503,0.2274166666666666,1.0,0.4448166666666667,사랑어린이집,서울특별시 동대문구 고산자로 534 제기한신아파트 단지동,37.586683,127.037348
476,11230000058,민간,0,0.15125,0.045,0.5345,0.0,0.0,0.14615,전농방과후어린이집,서울특별시 동대문구 서울시립대로12길 99355-1,37.5783261,127.0510256
477,11230000060,국공립,0,0.2794999999999999,0.0223333333333333,0.5745,0.0,0.0,0.1752666666666666,열린방과후어린이집,서울특별시 동대문구 전농로16길 59 열린방과후교실,37.5782176,127.0605784
478,11230000061,민간,242,0.4215,0.1826666666666666,0.7090000000000001,0.7835,1.0,0.6193333333333333,어린왕자어린이집,서울특별시 동대문구 신이문로6길 10,37.6024573,127.0629365
479,11230000066,법인·단체등,14,0.4105,0.0906666666666666,0.7090000000000001,0.65175,0.605,0.4933833333333334,영신어린이집,서울특별시 동대문구 답십리로 51,37.57658691,127.0470649
480,11230000067,민간,105,0.3785,0.093,0.503,0.285,0.348,0.3215,늘푸른어린이집,서울특별시 동대문구 서울시립대로 14 청계한신휴플러스아파트 관리동,37.5725516,127.045644
481,11230000070,국공립,59,0.251,0.04,0.503,0.27925,0.358,0.28625,늘사랑어린이집,서울특별시 동대문구 제기로38길 50 동성빌딩 2층,37.5842157,127.0490563
482,11230000073,민간,50,0.4297499999999999,0.0553333333333333,0.7,0.0,0.292,0.2954166666666666,아이나무킨더어린이집,서울특별시 동대문구 약령시로 25 안암골벽산아파트 단지내,37.583371,127.0318452
483,11230000078,국공립,85,0.4145,0.0573333333333333,0.503,0.25,1.0,0.4449666666666666,새싹어린이집,서울특별시 동대문구 한천로 248 101동 102호,37.5829867,127.0707472
484,11230000085,민간,82,0.38875,0.1033333333333333,0.7090000000000001,0.7955,0.585,0.5163166666666668,중앙삐아제어린이집,서울특별시 동대문구 한천로63길 5-8,37.6040187,127.0668131
485,11230000088,가정,23,0.1689999999999999,0.075,0.432,0.1666666666666666,0.567,0.2819333333333332,키즈브라운어린이집,서울특별시 동대문구 왕산로23길 89 103동 105호,37.58232117,127.0342104
486,11230000094,가정,20,0.454,0.0753333333333333,0.5745,0.0833333333333333,0.013,0.2400333333333332,효림어린이집,서울특별시 동대문구 한천로 248 111동 105호,37.583237,127.0719
487,11230000096,가정,86,0.279,0.0573333333333333,0.503,0.125,0.522,0.2972666666666667,아이꿈어린이집,서울특별시 동대문구 답십리로 210-30 2동 114호,37.57086836,127.0625253
488,11230000099,민간,15,0.5065,0.0516666666666666,0.3605,0.0,0.204,0.2245333333333333,빛초롱어린이집,서울특별시 동대문구 사가정로 168 SK아파트 제2관리소 단지동,37.5779341,127.0634634
489,11230000104,국공립,156,0.32175,0.081,0.5265,0.0,0.062,0.1982499999999999,보림어린이집,서울특별시 동대문구 외대역동로 114-1,37.5977979,127.0654844
490,11230000107,국공립,66,0.5517500000000001,0.214,0.6375,0.3895,0.35,0.42855,푸른하늘어린이집,서울특별시 동대문구 답십리로66길 75-4,37.5690047,127.0669885
491,11230000110,국공립,53,0.26675,0.1036666666666666,0.7315,0.04775,0.279,0.2857333333333333,회기하나어린이집,서울특별시 동대문구 회기로21가길 12,37.5918283,127.0538006
492,11230000112,가정,25,0.2315,0.075,0.503,0.2009166666666666,0.561,0.3142833333333333,우성그린어린이집,서울특별시 동대문구 답십리로59길 33 102동 101호,37.57479158,127.0659471
493,11230000113,국공립,38,0.3399999999999999,0.151,0.763,0.0475,0.459,0.3521,예나어린이집,서울특별시 동대문구 경동시장로23길 14,37.58574850000001,127.0394365
494,11230000116,국공립,148,0.43775,0.1006666666666666,0.6285000000000001,0.034,0.382,0.3165833333333333,동대문어린이집,서울특별시 동대문구 사가정로2길 13,37.5711856,127.0512727
495,11230000117,직장,0,0.3505,0.1083333333333333,0.5660000000000001,0.04075,0.472,0.3075166666666667,동대문구청직장어린이집,서울특별시 동대문구 고산자로28길 13,37.57439451111949,127.0398967848676
496,11230000124,가정,70,0.31475,0.04,0.3605,0.0,0.553,0.25365,중앙어린이집,서울특별시 동대문구 사가정로 148 111동 101호,37.57651405,127.0604564
497,11230000126,국공립,45,0.23625,0.0573333333333333,0.5745,0.15375,0.102,0.2247666666666667,칼비테영재어린이집,서울특별시 동대문구 장안벚꽃로 167 214동 102호,37.5739639,127.0753876
498,11230000135,국공립,181,0.35125,0.1496666666666666,0.5660000000000001,0.39725,0.393,0.3714333333333334,별밭어린이집,서울특별시 동대문구 답십리로66길 3,37.5723473,127.0685647
499,11230000136,민간,20,0.35225,0.092,0.6375,0.5445,0.509,0.42705,빛나어린이집,서울특별시 동대문구 전농로23길 47,37.5791384,127.0538643
500,11230000138,법인·단체등,69,0.4445,0.1163333333333333,0.669,0.2735,0.763,0.4532666666666666,그린어린이집,서울특별시 동대문구 망우로 82,37.58929979,127.0645396
501,11230000142,국공립,139,0.208,0.162,0.7,0.1335,0.441,0.3288999999999999,태양하나어린이집,서울특별시 동대문구 황물로 32,37.5740019,127.0453397
502,11230000145,국공립,268,0.39,0.0993333333333333,0.6375,0.07575,0.081,0.2567166666666666,초롱하나어린이집,서울특별시 동대문구 황물로 34,37.5707506,127.0507803
503,11230000147,국공립,33,0.2955,0.192,0.6375,0.188,0.403,0.3432,해오름어린이집,서울특별시 동대문구 약령시로5길 22,37.5840139,127.0341872
504,11230000151,국공립,241,0.33675,0.1323333333333333,0.503,0.26225,0.331,0.3130666666666666,한아름어린이집,서울특별시 동대문구 장안벚꽃로 167 삼성래미안2차아파트단지내,37.5740447,127.075098
505,11230000152,국공립,40,0.3107499999999999,0.0343333333333333,0.5660000000000001,0.0165,0.107,0.2069166666666667,앙팡어린이집,서울특별시 동대문구 홍릉로10길 18,37.5851555,127.0446751
506,11230000160,국공립,60,0.346,0.0576666666666666,0.503,0.17375,0.169,0.2498833333333333,이솝어린이집,서울특별시 동대문구 고산자로 534 107동 101호,37.5889242,127.0391551
507,11230000163,국공립,155,0.3075,0.042,0.5265,0.27075,0.278,0.28495,한빛어린이집,서울특별시 동대문구 이문로9길 105-13,37.5968111,127.0565399
508,11230000171,민간,55,0.27675,0.0903333333333333,0.646,0.4405,0.576,0.4059166666666667,아뜰어린이집,서울특별시 동대문구 안암로 6 대광고등학교내,37.5777481,127.0246154
509,11230000172,국공립,86,0.5665,0.2236666666666666,0.6375,0.1305,0.307,0.3730333333333333,장안어린이집,서울특별시 동대문구 천호대로89길 58,37.5640886,127.0694859
510,11230000183,민간,141,0.3364999999999999,0.192,0.606,0.5474166666666667,0.979,0.5321833333333333,조은어린이집,서울특별시 동대문구 답십리로56길 21-1 두산아파트단지내 조은어린이집,37.569267,127.0601314
511,11230000191,가정,0,0.3465,0.0403333333333333,0.3605,0.0,0.497,0.2488666666666666,예든어린이집,서울특별시 동대문구 장한로26다길 84 201동 105호,37.5688279846394,127.0717194608194
512,11230000194,국공립,60,0.41125,0.1213333333333333,0.5974999999999999,0.109,0.386,0.3250166666666667,해맑은어린이집,서울특별시 동대문구 한천로46길 70-9,37.5810951,127.0722993
513,11230000196,국공립,130,0.35125,0.0903333333333333,0.5660000000000001,0.14825,0.205,0.2721666666666666,우아세어린이집,서울특별시 동대문구 답십리로48길 38 답십리2동,37.571151,127.0577035
514,11230000200,민간,67,0.45725,0.0613333333333333,0.5345,0.047,0.341,0.2882166666666667,푸른나무어린이집,서울특별시 동대문구 장한로14길 81 삼성래미안1차아파트 관리동 1층,37.5664448,127.072427
515,11230000206,민간,8,0.26975,0.0556666666666666,0.7090000000000001,0.52875,0.548,0.4222333333333333,사군자어린이집,서울특별시 동대문구 장한로5길 45,37.5650769,127.0638671
516,11230000207,국공립,69,0.3465,0.085,0.5660000000000001,0.30575,0.403,0.34125,대림늘푸른어린이집,서울특별시 동대문구 답십리로60길 40,37.5711538,127.0643853
517,11230000208,민간,73,0.324,0.1306666666666666,0.503,0.2405,0.831,0.4058333333333334,장안현대어린이집,서울특별시 동대문구 장안벚꽃로 107 현대홈타운아파트 단지동,37.5697253,127.0746064
518,11230000214,가정,55,0.45375,0.0403333333333333,0.503,0.02725,0.751,0.3550666666666666,꿀벌어린이집,서울특별시 동대문구 장안벚꽃로 167 224동 102호,37.57389111,127.0752889
519,11230000216,가정,78,0.31975,0.04,0.503,0.0,0.061,0.1847499999999999,송림어린이집,서울특별시 동대문구 장안벚꽃로 167 209동 103호,37.57453486324778,127.075372874859
520,11230000221,가정,120,0.27625,0.0753333333333333,0.432,0.1974166666666666,0.309,0.258,사랑샘어린이집,서울특별시 동대문구 이문로12길 3-10 107동 101호,37.59351274,127.0603039
521,11230000225,가정,110,0.3145,0.0576666666666666,0.5745,0.2635,0.293,0.3006333333333333,햇님어린이집,서울특별시 동대문구 사가정로 148 105동 101호,37.57606866604141,127.0598908698592
522,11230000226,가정,12,0.284,0.0576666666666666,0.7090000000000001,0.625,0.388,0.4127333333333333,미주키즈어린이집,서울특별시 동대문구 홍릉로10길 48 104동 102호,37.58581012787956,127.0460123267137
523,11230000232,가정,98,0.3915,0.0403333333333333,0.432,0.0,0.051,0.1829666666666666,규현어린이집,서울특별시 동대문구 한천로58길 47 103동 102호,37.59999669,127.0684984
524,11230000237,가정,16,0.2075,0.0386666666666666,0.3605,0.0605,1.0,0.3334333333333333,꼬꼬마어린이집,서울특별시 동대문구 답십리로68길 52-4,37.57036913,127.0684373
525,11230000243,가정,125,0.3835,0.128,0.5745,0.2011666666666666,0.501,0.3576333333333333,브레인에듀어린이집,서울특별시 동대문구 장안벚꽃로 107 116동 103호,37.56966129,127.0746722
526,11230000244,가정,0,0.50325,0.0143333333333333,0.5345,0.0,0.0,0.2104166666666666,길터어린이집,서울특별시 동대문구 장한로36길 15 신부 3차 아파트 102호 길터어린이집,37.57766942623981,127.0731448195411
527,11230000245,가정,18,0.2312499999999999,0.093,0.5745,0.226,0.193,0.26355,천사나라어린이집,서울특별시 동대문구 제기로 131 106동 103호,37.58752092323472,127.0487307052058
528,11230000246,가정,49,0.3915,0.031,0.472,0.0,0.061,0.1911,동화마을어린이집,서울특별시 동대문구 망우로14길 18 2층 동화마을 어린이집,37.58902959,127.0602425
529,11230000248,가정,33,0.26975,0.0403333333333333,0.503,0.26375,0.366,0.2885666666666666,꿈동산어린이집,서울특별시 동대문구 사가정로 148 103동 103호,37.57651405,127.0604564
530,11230000249,국공립,37,0.47075,0.0353333333333333,0.401,0.0,1.0,0.3814166666666667,햇빛어린이집,서울특별시 동대문구 사가정로 190 16동 108호,37.57727149999999,127.0649582
531,11230000250,국공립,40,0.21125,0.0166666666666666,0.432,0.0,0.857,0.3033833333333333,청량리어린이집,서울특별시 동대문구 홍릉로17길 38,37.586215,127.0409839
532,11230000252,국공립,140,0.3075,0.0403333333333333,0.503,0.054,0.279,0.2367666666666666,신나는어린이집,서울특별시 동대문구 외대역동로 101 102동 102호,37.5964626,127.0646257
533,11230000254,가정,74,0.36975,0.0573333333333333,0.3605,0.035,0.188,0.2021166666666666,사랑해어린이집,서울특별시 동대문구 한천로58길 139 103동 102호,37.60253512,127.0697816
534,11230000268,직장,0,0.31575,0.0753333333333333,0.503,0.17575,0.265,0.2669666666666667,경희의료원 어린이집,서울특별시 동대문구 경희대로1나길 56-1,37.59343863,127.0501452
535,11230000274,민간,13,0.25225,0.129,0.7175,0.27625,1.0,0.475,동아어린이집,서울특별시 동대문구 한천로11길 10-1 동아아파트 단지내 유치원동,37.5693419,127.0617086
536,11230000276,민간,151,0.35625,0.1433333333333333,0.6775,0.36475,1.0,0.5083666666666666,포르테몬테소리어린이집,서울특별시 동대문구 장한로12길 76-1,37.56427559999999,127.0714782
537,11230000279,국공립,84,0.3432499999999999,0.0386666666666666,0.503,0.05675,0.157,0.2197333333333332,대림 어린이집,서울특별시 동대문구 한천로63길 10 115동 103호,37.6045226,127.0649732
538,11230000283,가정,176,0.31975,0.0573333333333333,0.503,0.125,0.705,0.3420166666666667,동아개구쟁이어린이집,서울특별시 동대문구 한천로11길 10-1 104동 103호,37.56927633,127.061745
539,11230000284,직장,0,0.347,0.0726666666666666,0.3399999999999999,0.03425,0.249,0.2085833333333333,삼육서울병원직장어린이집,서울특별시 동대문구 망우로 82,37.58929979,127.0645396
540,11230000285,국공립,35,0.37675,0.0753333333333333,0.5660000000000001,0.26925,0.308,0.3190666666666667,언덕위에 하얀 어린이집,서울특별시 동대문구 약령시로3길 38,37.5840464,127.032284
541,11230000302,민간,162,0.27625,0.037,0.472,0.0585,1.0,0.36875,예지어린이집,서울특별시 동대문구 장안벚꽃로1길 7 힐스테이트 단지내,37.5759642,127.0753503
542,11230000303,가정,8,0.23125,0.0563333333333333,0.432,0.125,0.258,0.2205166666666667,꼬마별어린이집,서울특별시 동대문구 천호대로89길 33 202동 102호,37.56336247,127.0677334
543,11230000304,가정,67,0.4815,0.0576666666666666,0.5745,0.202,1.0,0.4631333333333333,해리어린이집,서울특별시 동대문구 답십리로66길 20 101동 101호,37.57172688,127.0678521
544,11230000306,직장,0,0.1375,0.044,0.5660000000000001,0.0315,0.523,0.2604,우리누리어린이집,서울특별시 동대문구 약령시로 159,37.5832263,127.0478011
545,11230000307,가정,195,0.312,0.093,0.5974999999999999,0.26475,0.682,0.38985,지니맘어린이집,서울특별시 동대문구 한천로11다길 86,37.5683665016,127.0590142491
546,11230000308,국공립,50,0.3042499999999999,0.0573333333333333,0.503,0.125,0.028,0.2035166666666666,파랑새어린이집,서울특별시 동대문구 장안벚꽃로 107 108동 102호,37.5697253,127.0746064
547,11230000323,가정,105,0.3565,0.0226666666666666,0.432,0.01925,0.139,0.1938833333333333,아이숲어린이집,서울특별시 동대문구 전농로10길 20 101동 102호,37.57443523306039,127.0584023694757
548,11230000325,가정,0,0.38825,0.0576666666666666,0.5745,0.0,0.775,0.3590833333333333,미소가득한어린이집,서울특별시 동대문구 사가정로23길 40 경남하이빌102호,37.58044939,127.0701923
549,11230000326,가정,54,0.2665,0.0559999999999999,0.5745,0.0415,0.223,0.2323,샘터어린이집,서울특별시 동대문구 고산자로 534 105동 101호,37.58872123,127.0390668
550,11230000340,민간,72,0.23075,0.0733333333333333,0.432,0.307,0.514,0.3114166666666667,더불어숲어린이집,서울특별시 동대문구 한천로33길 11 래미안 엘파인아파트 단지동,37.5756105,127.0668513
551,11230000342,가정,47,0.2665,0.0573333333333333,0.432,0.2885,0.112,0.2312666666666666,해피트리어린이집,서울특별시 동대문구 장한로5길 28 301동 106호,37.56488543,127.0650238
552,11230000420,직장,0,0.3625,0.0626666666666666,0.503,0.125,0.091,0.2288333333333333,경희대학교직장어린이집,서울특별시 동대문구 경희대로 26-6,37.59621368,127.0548411
553,11230000427,가정,153,0.2794999999999999,0.037,0.503,0.0,0.138,0.1914999999999999,휴사랑어린이집,서울특별시 동대문구 서울시립대로 14 청계한신휴플러스107-104,37.57239233,127.0459184
554,11230000428,가정,94,0.26975,0.0403333333333333,0.432,0.25,0.013,0.2010166666666666,킨더베베어린이집,서울특별시 동대문구 외대역동로 14 103동 1층 관리동,37.59101617,127.0683997
555,11230000430,민간,13,0.28625,0.0786666666666666,0.7805,0.6839999999999999,0.528,0.4714833333333333,새하늘어린이집,서울특별시 동대문구 왕산로 312 제칠안식일예수재림교 본부교회,37.5877263,127.053712
556,11230000432,민간,36,0.2275,0.1966666666666666,0.7805,0.35,1.0,0.5109333333333334,홀츠앤키즈어린이집,서울특별시 동대문구 전농로16길 51 관리동,37.5809438,127.0610762
557,11230000433,민간,46,0.23075,0.1063333333333333,0.5345,0.1455,1.0,0.4034166666666666,세빛어린이집,서울특별시 동대문구 망우로20길 86 104동 1층,37.590199,127.0663516
558,11230000435,가정,50,0.31475,0.0753333333333333,0.503,0.1328333333333333,0.271,0.2593833333333333,다사랑어린이집,서울특별시 동대문구 장안벚꽃로 107 116-106,37.57105673850968,127.0751129785477
559,11230000436,국공립,135,0.24525,0.1013333333333333,0.7,0.3075,0.276,0.3260166666666667,예뜰어린이집,서울특별시 동대문구 답십리로45길 47,37.5749431,127.0551152
560,11230000439,가정,217,0.43975,0.0573333333333333,0.5345,0.125,0.097,0.2507166666666666,애플키즈어린이집,서울특별시 동대문구 사가정로 65 래미안크레시티아파트 110동 101호,37.5755066723418,127.0496964269222
561,11230000441,민간,27,0.37725,0.0906666666666666,0.7715000000000001,0.6805,0.58,0.4999833333333333,용두동어린이집,서울특별시 동대문구 왕산로17길 14,37.5793059,127.0315213
562,11230000442,가정,155,0.3834999999999999,0.093,0.4635,0.09725,0.297,0.26685,아이사랑어린이집,서울특별시 동대문구 사가정로 65 206동 104호,37.5755066723418,127.0496964269222
563,11230000444,민간,230,0.3535,0.1003333333333333,0.5660000000000001,0.1405,0.523,0.3366666666666667,래미안위브어린이집,서울특별시 동대문구 답십리로 130 2단지,37.57203740000001,127.053952
564,11230000445,민간,111,0.39875,0.1703333333333333,0.606,0.15525,1.0,0.4660666666666667,솔샘숲어린이집,서울특별시 동대문구 답십리로 130 1단지,37.57203740000001,127.053952
565,11230000446,국공립,90,0.399,0.1076666666666666,0.7,0.02775,0.333,0.3134833333333333,휘경스마일어린이집,서울특별시 동대문구 이문로8길 8-7,37.59149379999999,127.0577826
566,11230000448,가정,40,0.3165,0.0573333333333333,0.3605,0.18725,1.0,0.3843166666666667,예은어린이집,서울특별시 동대문구 답십리로 130 106동 106호,37.57285657781719,127.052402402398
567,11230000449,가정,75,0.18975,0.0573333333333333,0.503,0.149,0.158,0.2114166666666666,하랑어린이집,서울특별시 동대문구 답십리로 130 107동 106호,37.57285657781719,127.052402402398
568,11230000450,가정,165,0.35625,0.0573333333333333,0.503,0.25,0.417,0.3167166666666666,꼬마숲아띠어린이집,서울특별시 동대문구 답십리로 130 309동 105호,37.57285657781719,127.052402402398
569,11230000453,민간,0,0.2565,0.041,0.503,0.25,0.625,0.3351,리치예성어린이집,서울특별시 동대문구 한빛로 73 103동 101,37.5791258,127.0309768
570,11230000454,가정,89,0.2315,0.0576666666666666,0.3605,0.17625,0.153,0.1957833333333333,라온어린이집,서울특별시 동대문구 정릉천동로 16 106동 102호,37.57346839759568,127.0353050101169
571,11230000456,직장,0,0.202,0.108,0.7,0.2775,1.0,0.4575,한국국방연구원 직장어린이집,서울특별시 동대문구 회기로 85 800동,37.59503796925929,127.0463214731545
572,11230000457,가정,30,0.34775,0.0576666666666666,0.503,0.14425,1.0,0.4105333333333333,꿈둥이어린이집,서울특별시 동대문구 장안벚꽃로 107 105동 104호,37.57072760841874,127.0762321609072
573,11230000458,가정,109,0.3465,0.0576666666666666,0.3605,0.125,0.228,0.2235333333333333,아라어린이집,서울특별시 동대문구 장한로14길 81 106동 104호,37.5668166823,127.0721793498
574,11230000459,국공립,260,0.4325,0.0403333333333333,0.5345,0.25,0.099,0.2712666666666666,예지슬어린이집,서울특별시 동대문구 사가정로 65 109동 101호,37.576284,127.0506563
575,11230000460,국공립,189,0.28075,0.0403333333333333,0.5345,0.3087499999999999,0.39,0.3108666666666667,느티나무어린이집,서울특별시 동대문구 사가정로 65 201동 101호,37.576284,127.0506563
576,11230000461,국공립,328,0.34325,0.0403333333333333,0.503,0.25,0.0,0.2273166666666666,호수어린이집,서울특별시 동대문구 답십리로 130 403동 106호,37.57203740000001,127.053952
577,11230000462,국공립,308,0.41475,0.0403333333333333,0.5345,0.01925,1.0,0.4017666666666667,꿈동이어린이집,서울특별시 동대문구 답십리로 130 108동 106호,37.57203740000001,127.053952
578,11230000463,국공립,155,0.47075,0.0403333333333333,0.432,0.26325,0.172,0.2756666666666666,다온어린이집,서울특별시 동대문구 사가정로 65 212동 105호,37.576284,127.0506563
579,11230000464,직장,0,0.1375,0.0513333333333333,0.5974999999999999,0.0,0.371,0.2314666666666666,한국외국어대학교어린이집,서울특별시 동대문구 천장산로9길 11,37.5990516765,127.0570817007
580,11230000465,국공립,70,0.17925,0.0403333333333333,0.3605,0.0725,0.731,0.2767166666666666,아이미소어린이집,서울특별시 동대문구 전농로16길 51 107동 104호,37.5809438,127.0610762
581,11230000466,국공립,65,0.27175,0.04,0.432,0.03625,0.343,0.2246,한울어린이집,서울특별시 동대문구 장안벚꽃로 107 102동 101호,37.5697253,127.0746064
582,11230000467,국공립,115,0.3075,0.0403333333333333,0.5660000000000001,0.25,0.0,0.2327666666666666,누리보듬어린이집,서울특별시 동대문구 장안벚꽃로1길 7 1003동 104호,37.5759642,127.0753503
583,11230000469,국공립,200,0.38025,0.1256666666666666,0.5660000000000001,0.18275,0.349,0.3207333333333333,다함어린이집,서울특별시 동대문구 사가정로 65,37.576284,127.0506563
584,11230000470,국공립,125,0.379,0.075,0.5745,0.1666666666666666,0.021,0.2432333333333333,가온어린이집,서울특별시 동대문구 천호대로89길 30 101동 109호,37.563039,127.0690412
585,11230000471,직장,0,0.30075,0.2316666666666666,0.763,0.2639444444444444,0.366,0.3850722222222222,서울시립대학교직장어린이집,서울특별시 동대문구 서울시립대로 163 서울시립대학교직장어린이집,37.5825764944,127.0599900508
586,11230000472,국공립,70,0.32525,0.0659999999999999,0.5345,0.03325,0.671,0.3259999999999999,허브리츠어린이집,서울특별시 동대문구 정릉천동로 36 관리동,37.575348,127.0360378
587,11230000473,국공립,154,0.373,0.0643333333333333,0.401,0.04025,0.614,0.2985166666666666,해솔어린이집,서울특별시 동대문구 한천로 248,37.5829867,127.0707472
588,11230000474,국공립,57,0.332,0.1086666666666666,0.606,0.2017499999999999,0.853,0.4202833333333332,이문현대어린이집,서울특별시 동대문구 한천로58길 107,37.6013505,127.0701922
589,11230000475,국공립,164,0.2425,0.103,0.503,0.144,0.312,0.2609,이편한오렌지어린이집,서울특별시 동대문구 한천로63길 10,37.6045226,127.0649732
590,11230000476,국공립,110,0.3525,0.0546666666666666,0.5345,0.3095,1.0,0.4502333333333334,위브어린이집,서울특별시 동대문구 황물로15길 25,37.5661855,127.0576942
591,11230000477,국공립,44,0.39025,0.1413333333333333,0.5345,0.16,0.563,0.3578166666666666,솔솔어린이집,서울특별시 동대문구 장안벚꽃로5길 19 2층,37.5816643,127.0741896
592,11230000478,국공립,136,0.323,0.0733333333333333,0.5974999999999999,0.0215,0.265,0.2560666666666666,솔향기어린이집,서울특별시 동대문구 장한로26다길 77,37.5683456,127.0719782
593,11230000479,국공립,134,0.231,0.0573333333333333,0.5660000000000001,0.0695,0.715,0.3277666666666666,청솔어린이집,서울특별시 동대문구 전농로10길 20,37.5744795,127.0597451
594,11230000480,국공립,190,0.26225,0.079,0.5345,0.079,1.0,0.39095,청아어린이집,서울특별시 동대문구 천호대로55길 11,37.5714477,127.0473028
595,11230000481,국공립,200,0.28175,0.121,0.5974999999999999,0.1355,0.733,0.3737499999999999,미드카운티어린이집,서울특별시 동대문구 답십리로 141,37.5745142,127.05626
596,11230000482,국공립,224,0.41225,0.086,0.5974999999999999,0.21025,0.409,0.343,노블레스어린이집,서울특별시 동대문구 답십리로23길 30 관리동,37.5764456,127.0493621
597,11230000483,국공립,50,0.254,0.04,0.503,0.05125,0.101,0.18985,가람어린이집,서울특별시 동대문구 왕산로23길 89 101동 101호,37.5821997,127.0340841
598,11230000484,국공립,317,0.40075,0.0686666666666666,0.5660000000000001,0.0535,0.283,0.2743833333333333,파크자이어린이집,서울특별시 동대문구 답십리로56길 105 관리동,37.5677198,127.0596989
599,11230000485,국공립,130,0.38375,0.0403333333333333,0.503,0.0135,0.059,0.1999166666666666,아이뜰어린이집,서울특별시 동대문구 사가정로 190 13동 101호,37.57727149999999,127.0649582
600,11230000486,국공립,138,0.2794999999999999,0.0753333333333333,0.503,0.0,0.032,0.1779666666666666,예닮어린이집,서울특별시 동대문구 무학로26길 30 1동 103호,37.5726981,127.0323149
601,11230000487,국공립,110,0.3419999999999999,0.0576666666666666,0.503,0.027,0.157,0.2173333333333333,자연어린이집,서울특별시 동대문구 한천로37길 33 104동 104호,37.5758796,127.0653027
602,11230000488,국공립,25,0.34325,0.0576666666666666,0.503,0.17125,0.017,0.2184333333333333,아이랑어린이집,서울특별시 동대문구 한천로55길 9 102동 109호,37.5959208,127.0675576
603,11230000489,민간,33,0.31475,0.0423333333333333,0.6375,0.07675,1.0,0.4142666666666666,이화어린이집,서울특별시 동대문구 장한로26다길 38,37.5700617,127.0727073
604,11230000490,국공립,300,0.34525,0.0686666666666666,0.606,0.161,1.0,0.4361833333333333,휘경SK뷰어린이집,"서울특별시 동대문구 휘경로 60 휘경SK뷰아파트, 관리동",37.5936315,127.0660881
605,11230000492,국공립,88,0.3455,0.0473333333333333,0.5974999999999999,0.0175,1.0,0.4015666666666666,데시앙어린이집,서울특별시 동대문구 장한로27길 37 관리동,37.5731113,127.0695843
606,11230000493,민간,122,0.28625,0.071,0.5974999999999999,0.07075,0.373,0.2797,늘봄어린이집,서울특별시 동대문구 외대역동로1길 60-3 휘경해모로 관리동,37.591371,127.0623365
607,11230000494,국공립,144,0.2249999999999999,0.1283333333333333,0.503,0.1970833333333333,0.366,0.2838833333333334,삼성어린이집,서울특별시 동대문구 한천로26길 43,37.5712933,127.0682388
608,11230000495,국공립,169,0.2804999999999999,0.155,0.5660000000000001,0.18325,0.349,0.3067499999999999,청계포레어린이집,서울특별시 동대문구 무학로 89,37.5721425,127.0297414
609,11230000504,국공립,137,0.28525,0.1243333333333333,0.5660000000000001,0.327,0.324,0.3253166666666667,연세어린이집,서울특별시 동대문구 장한로27나길 65,37.5760858,127.0704474
610,11230000505,국공립,82,0.2525,0.0656666666666666,0.5345,0.30325,0.167,0.2645833333333333,엘리니티어린이집,서울특별시 동대문구 한빛로 49 래미안엘리니티 아파트 105동,37.5796999,127.0297833
611,11230000507,국공립,257,0.27175,0.1266666666666666,0.6599999999999999,0.34725,0.379,0.3569333333333333,그라시엘어린이집,서울특별시 동대문구 고산자로32길 78 103동,37.5770487,127.0404242
612,11230000508,국공립,210,0.2624999999999999,0.12,0.669,0.24075,0.412,0.34085,스카이어린이집,서울특별시 동대문구 답십리로 27 단지내,37.574081,127.0587743
613,11230000510,가정,30,0.20475,0.0576666666666666,0.3605,0.1405,0.621,0.2768833333333333,별초롱어린이집,서울특별시 동대문구 장안벚꽃로 107 104동 102호,37.56966129,127.0746722
614,11230000511,국공립,143,0.23925,0.063,0.432,0.125,0.515,0.27485,해찬어린이집,서울특별시 동대문구 한천로 248 관리동,37.5829867,127.0707472
615,11230000512,가정,128,0.26975,0.038,0.432,0.2745,0.178,0.2384499999999999,예일어린이집,서울특별시 동대문구 한천로63길 10 106동 104호,37.60448057,127.0650075
616,11230000513,민간,144,0.21975,0.0586666666666666,0.5745,0.125,0.418,0.2791833333333333,신현대어린이집,서울특별시 동대문구 이문로1길 21 신현대아파트 관리소동 1층,37.5896042,127.0518226
617,11230000514,민간,44,0.2784999999999999,0.0593333333333333,0.432,0.0275,0.25,0.2094666666666667,삼성영재어린이집,서울특별시 동대문구 전농로 192 삼성아파트 단지내,37.5819285,127.0555938
618,11230000515,국공립,373,0.23425,0.111,0.495,0.2289999999999999,0.386,0.29105,라그란데슬하어린이집,서울특별시 동대문구 이문로35길 12 관리동,37.6007665,127.0601926
619,11230000516,국공립,360,0.21025,0.1293333333333333,0.6285000000000001,0.2361666666666666,0.414,0.32365,라그란데꿈별어린이집,서울특별시 동대문구 이문로35길 21 관리동,37.6007665,127.0601926
620,11230000517,국공립,322,0.292,0.229,0.5265,0.2543214285714286,0.555,0.3713642857142857,라그란데은하수어린이집,서울특별시 동대문구 이문로35길 12 105동 1층,37.6007665,127.0601926
621,11230000518,국공립,185,0.3075,0.0403333333333333,0.503,0.03075,0.182,0.2127166666666666,꿈쟁이어린이집,서울특별시 동대문구 한천로58길 47 102동 102호,37.5997832,127.0685137
622,11230000519,국공립,45,0.2624999999999999,0.04,0.503,0.3107499999999999,0.846,0.39245,현대참사랑어린이집,서울특별시 동대문구 장안벚꽃로1길 7 1008동 102호,37.5759642,127.0753503
623,11230000520,국공립,120,0.21375,0.04,0.432,0.05775,0.167,0.1820999999999999,동그라미어린이집,서울특별시 동대문구 천호대로77길 63 101동 104호,37.5649007,127.0623299
624,11230000521,국공립,25,0.1969999999999999,0.04,0.503,0.05125,0.309,0.22005,조앤아이어린이집,서울특별시 동대문구 장안벚꽃로 167 215동 102호,37.5739639,127.0753876
625,11230000522,국공립,204,0.3107499999999999,0.0896666666666666,0.5345,0.0925833333333333,0.252,0.2558999999999999,아르테포레어린이집,서울특별시 동대문구 전농로4나길 19,37.5665665,127.0612089
626,11230000523,국공립,-,0.0,0.001,0.0,0.0,0.0,0.0002,디센시아루다어린이집,서울특별시 동대문구 외대역동로 63-27 112동 1층,37.5939578,127.0642827
627,11230000524,국공립,-,0.0,0.3333333333333333,0.0,0.0,0.0,0.0666666666666666,디센시아키즈아뜰리에어린이집,서울특별시 동대문구 외대역동로 63-27 단지동,37.5939578,127.0642827
628,11260000004,민간,39,0.3615,0.1023333333333333,0.7090000000000001,0.5,0.358,0.4061666666666667,사과나무어린이집,서울특별시 중랑구 사가정로51길 47,37.5831027,127.0877172
629,11260000009,민간,38,0.3455,0.0793333333333333,0.6775,0.4085,1.0,0.5021666666666667,리틀피카소어린이집,서울특별시 중랑구 용마산로94길 50,37.5883367,127.0993921
630,11260000010,민간,83,0.4054999999999999,0.2696666666666666,0.749,0.6825555555555556,0.899,0.6011444444444445,세모네모재능어린이집,서울특별시 중랑구 중랑역로 72-8,37.6002075,127.0786486
631,11260000013,국공립,100,0.35575,0.21,0.606,0.2179166666666666,0.683,0.4145333333333333,세화어린이집,서울특별시 중랑구 동일로123길 125,37.5999191,127.0737844
632,11260000015,국공립,116,0.28075,0.1136666666666666,0.669,0.299,0.456,0.3636833333333333,새싹어린이집,서울특별시 중랑구 동일로118길 9,37.5946146,127.0809296
633,11260000016,민간,54,0.45075,0.1483333333333333,0.812,0.69075,0.538,0.5279666666666667,자연어린이집,서울특별시 중랑구 용마산로114길 4,37.59884479999999,127.1012427
634,11260000017,국공립,85,0.3485,0.1826666666666666,0.7,0.288,0.566,0.4170333333333333,명인어린이집,서울특별시 중랑구 면목로53길 70,37.58407529999999,127.084455
635,11260000023,가정,40,0.4815,0.0576666666666666,0.432,0.25,0.004,0.2450333333333333,예쁜꼬마어린이집,서울특별시 중랑구 동일로169길 41 103동 102호,37.61330767,127.0745643
636,11260000024,가정,89,0.398,0.0563333333333333,0.503,0.15475,0.145,0.2514166666666667,꼬마숲어린이집,서울특별시 중랑구 신내로7나길 24 210동 101호,37.60093748893807,127.0925528650968
637,11260000025,민간,22,0.374,0.1023333333333333,0.7715000000000001,0.32225,0.662,0.4464166666666666,아이어린이집,서울특별시 중랑구 동일로157라길 12-20,37.6110331,127.0753659
638,11260000027,가정,26,0.2794999999999999,0.0579999999999999,0.348,0.1655,0.474,0.265,여명어린이집,서울특별시 중랑구 동일로160길 49,37.61122554,127.080464
639,11260000030,민간,11,0.2734999999999999,0.1413333333333333,0.669,0.275,0.962,0.4641666666666665,해바라기어린이집,서울특별시 중랑구 봉우재로20길 45,37.5894434,127.0809505
640,11260000032,국공립,56,0.391,0.2076666666666666,0.5974999999999999,0.1811388888888889,0.825,0.4404611111111111,보경어린이집,서울특별시 중랑구 망우로77길 12,37.601392,127.1063431
641,11260000034,민간,39,0.13825,0.0496666666666666,0.4635,0.0,0.909,0.3120833333333334,하니뜰어린이집,서울특별시 중랑구 신내로 127 신내아파트관리사무소1층,37.6119852,127.0947268
642,11260000035,국공립,49,0.3605,0.1543333333333333,0.514,0.2248333333333333,0.513,0.3533333333333333,금파어린이집,서울특별시 중랑구 용마산로 520-5,37.5975125,127.1007308
643,11260000036,국공립,77,0.37525,0.107,0.5660000000000001,0.16325,0.759,0.3941,신내어린이집,서울특별시 중랑구 용마산로125가길 39-26,37.6046896,127.0979532
644,11260000039,가정,45,0.27625,0.0406666666666666,0.5745,0.27575,0.298,0.2930333333333333,포그니어린이집,서울특별시 중랑구 신내로7가길 31 101동 102호,37.60219938,127.0942693
645,11260000040,국공립,96,0.325,0.1503333333333333,0.7,0.2824166666666666,0.526,0.39675,한내들어린이집,서울특별시 중랑구 동일로139라길 24,37.6043016,127.0749305
646,11260000041,민간,45,0.29875,0.1216666666666666,0.7805,0.4393333333333333,0.908,0.5096499999999999,피노키오어린이집,서울특별시 중랑구 봉화산로 146 LG쌍용아파트 1309동 1층,37.6033115,127.0896665
647,11260000044,가정,21,0.31475,0.075,0.289,0.1013333333333333,0.486,0.2532166666666666,사랑나무어린이집,서울특별시 중랑구 용마산로 616 101동 101호,37.60526023,127.1013446
648,11260000046,국공립,94,0.4425,0.1726666666666666,0.5974999999999999,0.3188333333333333,0.588,0.4239,둥지어린이집,서울특별시 중랑구 공릉로14길 19,37.6177183,127.0802791
649,11260000047,민간,-,0.0,0.155,0.812,0.25,1.0,0.4434,푸른꿈어린이집,서울특별시 중랑구 공릉로12나길 16,37.6165646,127.081631
650,11260000048,국공립,72,0.41425,0.1206666666666666,0.6375,0.34125,1.0,0.5027333333333333,초롱어린이집,서울특별시 중랑구 중랑역로3길 28,37.5950121,127.074834
651,11260000052,가정,100,0.2729999999999999,0.0753333333333333,0.503,0.317,0.613,0.3562666666666666,영재스쿨어린이집,서울특별시 중랑구 동일로 752 109동 102호,37.59709077,127.0818281
652,11260000055,민간,15,0.283,0.0893333333333333,0.7404999999999999,0.625,0.718,0.4911666666666667,혜원어린이집,서울특별시 중랑구 상봉로16가길 14,37.5919263,127.0953834
653,11260000057,민간,29,0.27975,0.1283333333333333,0.7715000000000001,0.29625,0.989,0.4929666666666666,해오름어린이집,서울특별시 중랑구 면목로65길 13,37.5865277,127.0873475
654,11260000058,민간,18,0.41375,0.1046666666666666,0.749,0.5,0.853,0.5240833333333332,예쁜둥지어린이집,서울특별시 중랑구 동일로152길 45-5,37.6089563,127.0807989
655,11260000060,국공립,33,0.36125,0.1596666666666666,0.6375,0.2911666666666667,0.473,0.3845166666666667,배꽃어린이집,서울특별시 중랑구 용마산로109길 18,37.5974799,127.0991077
656,11260000061,민간,7,0.3294999999999999,0.1223333333333333,0.8745,0.25,0.383,0.3918666666666667,영재어린이집,서울특별시 중랑구 상봉로11길 44-7,37.5901366,127.0909315
657,11260000062,국공립,23,0.34175,0.2066666666666666,0.669,0.2008928571428571,0.691,0.4218619047619047,봉화어린이집,서울특별시 중랑구 봉화산로 165,37.6053667,127.0911425
658,11260000066,국공립,57,0.458,0.2749999999999999,0.411,0.257,0.632,0.4065999999999999,천사어린이집,서울특별시 중랑구 사가정로64길 10-4,37.5799049,127.0917732
659,11260000067,국공립,59,0.41025,0.2573333333333333,0.5660000000000001,0.21825,0.571,0.4045666666666667,사랑어린이집,서울특별시 중랑구 동일로143길 12-12,37.6058569,127.0777718
660,11260000068,국공립,45,0.3495,0.1526666666666666,0.669,0.0985,0.483,0.3505333333333333,열매어린이집,서울특별시 중랑구 동일로100길 26,37.5886066,127.0814268
661,11260000069,국공립,33,0.33075,0.1893333333333333,0.3794999999999999,0.18075,0.662,0.3484666666666666,혜성어린이집,서울특별시 중랑구 동일로136나길 29-6,37.6037171,127.0824406
662,11260000070,국공립,40,0.38225,0.0403333333333333,0.606,0.0385,0.592,0.3318166666666666,배봉어린이집,서울특별시 중랑구 신내로 115,37.6092678,127.0946021
663,11260000071,국공립,61,0.31875,0.212,0.5974999999999999,0.3213333333333333,0.692,0.4283166666666666,금강어린이집,서울특별시 중랑구 용마산로100길 20,37.5913,127.0990059
664,11260000073,국공립,45,0.31625,0.3233333333333333,0.669,0.23225,0.722,0.4525666666666667,용마어린이집,서울특별시 중랑구 용마산로 393,37.58697739999999,127.0951857
665,11260000074,국공립,137,0.50125,0.2936666666666667,0.7,0.1505,0.692,0.4674833333333333,면일어린이집,서울특별시 중랑구 상봉로19길 13,37.5933424,127.0925721
666,11260000075,국공립,182,0.36125,0.2086666666666666,0.7315,0.1588333333333333,0.559,0.40385,또또어린이집,서울특별시 중랑구 동일로 584,37.5824103,127.0800367
667,11260000076,직장,0,0.39075,0.3063333333333333,0.669,0.1851363636363636,1.0,0.5102439393939393,중랑구청직장어린이집,서울특별시 중랑구 봉화산로 179,37.6065649369,127.0927251834
668,11260000078,국공립,176,0.266,0.1966666666666666,0.6375,0.1375,0.777,0.4029333333333332,상봉어린이집,서울특별시 중랑구 상봉중앙로6길 57,37.6020331,127.0901504
669,11260000081,민간,41,0.42875,0.1073333333333333,0.5660000000000001,0.14175,1.0,0.4487666666666666,늘푸른동아어린이집,"서울특별시 중랑구 동일로 476 늘푸른동아아파트 102동 101호,102호",37.572876,127.0806338
670,11260000082,국공립,45,0.23575,0.1676666666666666,0.5660000000000001,0.28175,0.715,0.3932333333333333,꿈마루어린이집,서울특별시 중랑구 겸재로50나길 71,37.5857747,127.0941869
671,11260000083,민간,86,0.4885,0.2036666666666666,0.906,0.5556666666666666,0.937,0.6181666666666666,시온어린이집,서울특별시 중랑구 면목로84길 31,37.5921501,127.0885305
672,11260000085,가정,28,0.43975,0.0753333333333333,0.5745,0.1886666666666666,0.088,0.27325,또래또어린이집,서울특별시 중랑구 공릉로2나길 46 201동 102호,37.61410646,127.0799256
673,11260000091,민간,58,0.28175,0.1666666666666666,0.7195,0.5762499999999999,1.0,0.5488333333333333,참예은어린이집,서울특별시 중랑구 동일로116길 47,37.5946717,127.0835856
674,11260000095,가정,45,0.41975,0.0343333333333333,0.503,0.0,0.006,0.1926166666666666,참사랑어린이집,서울특별시 중랑구 면목로74길 27 1층,37.58944779,127.0889899
675,11260000097,가정,15,0.31475,0.074,0.503,0.0105,1.0,0.38045,예담어린이집,서울특별시 중랑구 중랑천로 20 3동 101호,37.5875087623864,127.0760086753926
